rank,total_deposits,bank_name,latitude,longitude
1,2601221000000.0,JPMorgan Chase Bank,37.2917504,-122.031897
2,2071624000000.0,Bank of America,51.5162146,-0.1000942
3,1419560000000.0,Wells Fargo Bank,40.0364923,-75.1293046
4,1361654000000.0,Citibank,0.421434,9.4290632
5,523102129000.0,U.S. Bank,47.8162218,-110.6692107
6,429504882000.0,PNC Bank,40.3911599,-74.7564792
7,413781000000.0,Truist Bank,39.2614813,-76.6943689
8,407086000000.0,Goldman Sachs Bank USA,,
9,388747598000.0,Capital One,33.1519177,-96.8041158
10,310780000000.0,The Bank of New York Mellon,51.5125419,-0.1024562
11,295363367000.0,TD Bank,42.0648588,-71.3298192
12,277920000000.0,State Street Bank and Trust Company,43.3179662,-73.8414057
13,219880000000.0,"Charles Schwab Bank, SSB",,
14,203572000000.0,Morgan Stanley Private Bank,,
15,202571778000.0,BMO Bank,51.1304872,-114.0093721
16,187089000000.0,Morgan Stanley Bank,51.5033714,-0.0222627
17,181419006000.0,Citizens Bank,40.619286,-74.0325034
18,169558883000.0,The Huntington National Bank,39.0993673,-84.5143981
19,169294179000.0,Manufacturers and Traders Trust Company,,
20,169032000000.0,Fifth Third Bank,39.1677626,-84.4098085
21,160110000000.0,First-Citizens Bank & Trust Company,37.3345869,-121.891095
22,158851165000.0,American Express National Bank,,
23,155773280000.0,KeyBank,42.596346,-73.7066698
24,155287000000.0,Ally Bank,,
25,139393219000.0,HSBC Bank USA,40.7294667,-73.8629501
26,133476663000.0,The Northern Trust Company,,
27,132993000000.0,Regions Bank,33.7869434,-84.3883151
28,114276909000.0,Discover Bank,38.8056603,-75.5844987
29,97879104000.0,UBS Bank USA,33.0239756,-117.0774284
30,97291000000.0,USAA Federal Savings Bank,29.5410483,-98.5754255
31,86092000000.0,Synchrony Bank,,
32,80783937000.0,"Santander Bank, N.A.",,
33,76488039000.0,City National Bank,29.3052694,-94.7933371
34,76011070000.0,"Zions Bancorporation, N.A.",,
35,74441023000.0,Flagstar Bank,40.6006836,-73.9422175
36,69721272000.0,Western Alliance Bank,,
37,65844242000.0,Webster Bank,40.7641366,-73.9163445
38,65207996000.0,First Horizon Bank,25.6815595,-80.3151479
39,63156194000.0,East West Bank,40.7615532,-73.8268418
40,63003000000.0,Comerica Bank,32.7815307,-96.7965044
41,58142921000.0,UMB Bank,38.6251326,-90.1897723
42,54706000000.0,Banco Popular de Puerto Rico,40.587099,-73.9523689
43,53444278000.0,SouthState Bank,33.7739744,-84.3875172
44,51540313000.0,Synovus Bank,30.7844064,-86.5588962
45,50173859000.0,Valley National Bank,40.7421084,-73.6964379
46,48857202000.0,CIBC Bank USA,41.8388212,-87.7051715
47,44735690000.0,Pinnacle Bank,36.0776221,-86.9497436
48,43584351000.0,"STANDARD CHARTERED BANK, PLC",,
49,42861521000.0,Frost Bank,29.7380305,-95.5015798
50,42291904000.0,Umpqua Bank,47.2877727,-122.3138697
51,41333273000.0,Old National Bank,41.9515248,-88.7255998
52,40335728000.0,Cadence Bank,29.7420879,-95.4412621
53,38660790000.0,BOKF,,
54,38155227000.0,First National Bank of Pennsylvania,40.4394921,-80.0009447
55,37925051000.0,Raymond James Bank,,
56,35721000000.0,Barclays Bank Delaware,39.7377889,-75.5579793
57,35229355000.0,Associated Bank,41.9759114,-87.7689214
58,31925666000.0,Bank OZK,34.2891597,-85.1505052
59,30811669000.0,EverBank,25.7513497,-80.2552329
60,29472691000.0,Hancock Whitney Bank,30.2166412,-81.5156123
61,28520672000.0,BankUnited,25.8091025,-80.3265967
62,28325155000.0,TD Bank USA,42.0648588,-71.3298192
63,28320731000.0,Prosperity Bank,29.738022,-95.5079263
64,27706000000.0,Deutsche Bank Trust Company Americas,,
65,27517035000.0,Banc of California,34.0616915,-118.4144964
66,27382942000.0,SoFi Bank,30.5438964,49.1699656
67,26592282000.0,United Bank,38.351157,-81.6378371
68,26559632000.0,Texas Capital Bank,32.7531869,-97.3326426
69,26482475000.0,Fulton Bank,40.7362336,-73.9937306
70,26196760000.0,Commerce Bank,38.6276779,-90.1894157
71,26148420000.0,First National Bank of Omaha,41.2348346,-96.1210023
72,25327000000.0,BNY Mellon,51.5125419,-0.1024562
73,24326470000.0,MidFirst Bank,33.6080501,-112.0647141
74,24241174000.0,United Community Bank,3.1892015,101.7311394
75,23977132000.0,Arvest Bank,39.0690777,-94.5525363
76,23836506000.0,FirstBank,44.3829661,26.1320409
77,22991983000.0,First Interstate Bank,41.2133715,-96.1117154
78,22876000000.0,"Charles Schwab Premier Bank, SSB",,
79,22672002000.0,"Ameriprise Bank, FSB",,
80,22015816000.0,Ameris Bank,33.7620248,-84.3878303
81,21966925000.0,City National Bank of Florida,25.7743659,-80.1942957
82,21959209000.0,Simmons Bank,51.5132639,-0.0862317
83,21588301000.0,Washington Federal Bank,47.5196392,-122.266537
84,21437798000.0,"WesBanco Bank, Inc.",,
85,21112221000.0,Bank of Hawaii,21.3087776,-157.862083
86,20970665000.0,Eastern Bank,42.363486,-71.054636
87,20810915000.0,Glacier Bank,45.9952811,-112.5131631
88,20561746000.0,Atlantic Union Bank,37.5355275,-77.4359431
89,20426390000.0,Sallie Mae Bank,,
90,20330952000.0,Axos Bank,,
91,20230264000.0,First Hawaiian Bank,21.9546345,-159.6665048
92,19838783000.0,Cathay Bank,40.6166133,-73.9929439
93,19133891000.0,Customers Bank,39.9762188,-75.1570941
94,18974002000.0,TriState Capital Bank,,
95,18519274000.0,Provident Bank,40.7219986,-74.1500207
96,18505243000.0,Bank of China,22.4135377,113.9828786
97,18097184000.0,Centennial Bank,28.3633188,-81.2437637
98,17901748000.0,Stifel Bank and Trust,,
99,17132859000.0,"Wilmington Savings Fund Society, FSB",,
100,16874463000.0,FirstBank Puerto Rico,18.4274026,-66.0638477
101,15908572000.0,Rockland Trust Company,42.5304122,-71.2055224
102,15478780000.0,The Central Trust Bank,0.3126002,32.5744281
103,15175012000.0,Trustmark National Bank,33.519281,-90.1795017
104,15174200000.0,Renasant Bank,36.1526903,-86.7974395
105,14996000000.0,"Optum Bank, Inc.",,
106,14874335000.0,Apple Bank,40.6830243,-73.9957782
107,14760571000.0,TowneBank,35.2079459,-80.8248403
108,14721298000.0,Pacific Premier Bank,34.0543291,-118.4641817
109,14514368000.0,Bank of Hope,40.7440211,-73.9145977
110,14508219000.0,First Merchants Bank,-15.7854413,35.0069921
111,14452961000.0,ServisFirst Bank,,
112,14436329000.0,First Financial Bank,39.1391976,-84.4431146
113,14085584000.0,Community Bank,43.4769365,-75.3198885
114,13990207000.0,Mechanics Bank,37.7938704,-122.4014681
115,13677444000.0,Banner Bank,47.6133833,-122.3157512
116,13321160000.0,Bremer Bank,44.9001758,-91.9315714
117,13313000000.0,Bank of America California,34.0536175,-118.2532727
118,13161765000.0,Enterprise Bank & Trust,33.6209387,-111.8929747
119,12749471000.0,State Bank of India,8.5386859,77.0212491
120,12679006000.0,Bell Bank,54.0720836,-2.0327687
121,12598483000.0,First United Bank and Trust Company,37.7482756,-87.1136571
122,12581505000.0,Seacoast National Bank,27.4290859,-80.326377
123,12576712000.0,First Financial Bank,39.1391976,-84.4431146
124,12506747000.0,Northwest Bank,45.918411,-80.9270609
125,12468176000.0,Merchants Bank of Indiana,39.9263799,-86.1027174
126,12445573000.0,Live Oak Banking Company,,
127,12039174000.0,Citizens Business Bank,34.16043,-118.2546718
128,11952885000.0,Popular Bank,40.6478954,-74.0076321
129,11938584000.0,NBT Bank,42.6490557,-73.7518459
130,11758189000.0,Israel Discount Bank of New York,,
131,11693991000.0,Dime Community Bank,40.8303119,-73.6843116
132,11322359000.0,Sandy Spring Bank,38.9034018,-77.0210302
133,11235086000.0,FirstBank,44.3829661,26.1320409
134,10933941000.0,PlainsCapital Bank,29.7398317,-95.4183489
135,10770712000.0,First Bank,44.9405611,26.025349
136,10767104000.0,Bank Name Not Available,,
137,10696190000.0,Veritex Community Bank,29.7300625,-95.4131697
138,10649229000.0,Stifel Bank,38.6299094,-90.1888435
139,10602877000.0,NexBank,,
140,10512762000.0,Third Federal Savings and Loan Association of Cleveland,,
141,10388313000.0,BancFirst,36.0142881,-95.8857861
142,10309166000.0,OceanFirst Bank,39.9575351,-74.3885023
143,10028931000.0,Berkshire Bank,40.6342538,-73.993151
144,10024728000.0,Busey Bank,38.5884946,-90.2442065
145,9950424000.0,First Commonwealth Bank,32.8400325,-117.2739982
146,9942092000.0,Comenity Capital Bank,,
147,9934489000.0,Oriental Bank,3.1450321,101.6971096
148,9826174000.0,"Dollar Bank, Federal Savings Bank",,
149,9591386000.0,First Foundation Bank,37.8081306,-122.2658556
150,9419824000.0,Safra National Bank of New York,40.7556259,-73.9795491
151,9291538000.0,EagleBank,38.9016826,-77.040359
152,9200030000.0,"BANCO BILBAO VIZCAYA, S.A.",19.5146314,-99.1349864
153,9018229000.0,LendingClub Bank,,
154,9004509000.0,Charles Schwab Trust Bank,,
155,8914506000.0,Beal Bank USA,27.964754,-82.512482
156,8714124000.0,Washington Trust Bank,43.6686553,-116.28039
157,8696628000.0,Farmers and Merchants Bank of Long Beach,,
158,8679032000.0,Bank of Baroda,51.5832676,-0.3142343
159,8603944000.0,Stellar Bank,29.731283,-95.418191
160,8545676000.0,NBH Bank,38.9817531,-112.3232223
161,8513074000.0,Amarillo National Bank,35.202689,-101.8360985
162,8493134000.0,The Park National Bank,,
163,8419160000.0,Wells Fargo National Bank West,,
164,8402764000.0,Origin Bank,29.752754,-95.4103188
165,8374080000.0,The Bancorp Bank,35.9161464,-88.755219
166,8356958000.0,Wintrust Bank,41.9113378,-87.6322319
167,8332439000.0,Woodforest National Bank,29.7151076,-95.316849
168,8253380000.0,Columbia Bank,47.6695851,-122.385331
169,8241155000.0,Amerant Bank,25.7975579,-80.3376247
170,8239631000.0,"American Savings Bank, FSB",,
171,8212813000.0,Principal Bank,53.9588311,-1.0921992
172,8211270000.0,Tri Counties Bank,37.744436,-122.4530137
173,8074760000.0,BMW Bank of North America,,
174,7935139000.0,S&T Bank,40.0345879,-75.2162298
175,7805107000.0,ConnectOne Bank,40.7599997,-73.9205768
176,7778728000.0,Flushing Bank,40.7371753,-73.9882851
177,7774853000.0,Peoples Bank,41.7272005,-87.5514381
178,7729854000.0,Nicolet National Bank,44.4839623,-87.9185581
179,7600225000.0,Toyota Financial Savings Bank,,
180,7584919000.0,Byline Bank,42.0122402,-87.7093399
181,7527967000.0,Centier Bank,39.8690377,-86.0973785
182,7456463000.0,Amalgamated Bank,40.7596796,-73.937487
183,7442509000.0,Pinnacle Bank,36.0776221,-86.9497436
184,7418267000.0,1st Source Bank,41.1093433,-85.1154626
185,7406232000.0,Union Bank and Trust Company,40.6844946,-76.1948316
186,7295098000.0,Stock Yards Bank & Trust Company,,
187,7192623000.0,German American Bank,39.1641277,-86.5162912
188,7035981000.0,Bank Hapoalim B.M.,32.1678588,34.8431793
189,6980349000.0,Sunflower Bank,33.467295,-112.2674576
190,6971341000.0,Merrick Bank,,
191,6908488000.0,BankPlus,33.7472214,-90.7208036
192,6807136000.0,Lake Forest Bank & Trust Company,32.9094719,-96.7010454
193,6791460000.0,Tompkins Community Bank,40.0733279,-75.0759364
194,6786553000.0,Univest Bank and Trust Co.,40.1097432,-74.9520428
195,6709753000.0,Liberty Bank,41.9244199,-87.7004267
196,6626112000.0,Hanmi Bank,34.2017643,-118.447216
197,6621941000.0,Southside Bank,32.7320701,-97.3636185
198,6617174000.0,Central Pacific Bank,21.2827946,-157.8141892
199,6566935000.0,International Bank of Commerce,29.6883964,-95.5869734
200,6564584000.0,Cross River Bank,,
201,6549627000.0,Burke & Herbert Bank & Trust Company,,
202,6533737000.0,First Security Bank,35.2519554,-91.7370084
203,6526140000.0,Metropolitan Commercial Bank,40.7563918,-73.9802081
204,6513746000.0,CrossFirst Bank,38.8831779,-94.6403193
205,6478568000.0,Intrust Bank,37.6932858,-97.2961872
206,6474772000.0,Capitol Federal Savings Bank,39.0496522,-94.586806
207,6471608000.0,b1BANK,32.5308781,-92.6375784
208,6466366000.0,"The First,  A   National Banking Association",,
209,6336301000.0,Bank of Colorado,39.7449791,-104.987698
210,6304598000.0,Peapack Private Bank & Trust,,
211,6257640000.0,"First American Trust, FSB",,
212,6188196000.0,First Mid Bank & Trust,40.1185276,-88.2442636
213,6181793000.0,Bangor Savings Bank,43.6607926,-70.2675199
214,6142378000.0,Mizuho Bank (USA),35.7438034,-77.9628985
215,6106400000.0,HomeStreet Bank,34.2249727,-118.4491832
216,6078374000.0,Preferred Bank,40.7562843,-73.8288479
217,6032420000.0,"RBC Bank, (Georgia)",49.2836188,-123.119488
218,5968861000.0,Alpine Bank,39.747663,-104.8780539
219,5963532000.0,Lake City Bank,39.9276929,-86.1592357
220,5942621000.0,Midland States Bank,42.2696496,-88.9831822
221,5870475000.0,First Bank,44.9405611,26.025349
222,5849495000.0,Heritage Bank,17.2458462,-89.0023818
223,5846175000.0,Horizon Bank,30.2690818,-97.7490349
224,5829220000.0,Ocean Bank,25.7965532,-80.320387
225,5827429000.0,Forbright Bank,39.0489367,-77.1185965
226,5822039000.0,Pathward,42.3524715,-71.1255496
227,5774644000.0,Ridgewood Savings Bank,40.7311628,-73.8874552
228,5737943000.0,Kearny Bank,40.6681402,-73.9873705
229,5720907000.0,Bankers Trust Company,40.7076337,-74.010757
230,5669983000.0,Poppy Bank,37.3351735,-121.892284
231,5658891000.0,WEX Bank,,
232,5653184000.0,Bank of India,51.5524148,-0.2850211
233,5641218000.0,Salem Five Cents Savings Bank,,
234,5632856000.0,The Camden National Bank,,
235,5629458000.0,Stockman Bank of Montana,46.8730312,-113.9981814
236,5562685000.0,CNB Bank,39.7167592,-90.2486349
237,5512608000.0,"United Fidelity Bank, fsb",,
238,5496683000.0,TrustCo Bank,42.8194503,-73.7740702
239,5494172000.0,MidWestOne Bank,44.9612056,-93.2928553
240,5486108000.0,Cambridge Savings Bank,42.3731973,-71.1190058
241,5465024000.0,Shore United Bank,38.979963,-76.5261182
242,5463852000.0,Republic Bank & Trust Company,41.9311599,-87.78614
243,5423774000.0,Five Star Bank,42.8900795,-78.8739198
244,5423332000.0,SMBC MANUBANK,,
245,5354216000.0,City National Bank of West Virginia,,
246,5311049000.0,Johnson Bank,50.8335441,-0.1262191
247,5276650000.0,Middlesex Savings Bank,42.3291125,-71.4355187
248,5219496000.0,Fremont Bank,37.7788142,-122.3930951
249,5176775000.0,Broadway National Bank,37.8048558,-122.2711297
250,5123509000.0,"Community Trust Bank, Inc.",,
251,5050310000.0,First American Bank,41.7200075,-87.775515
252,5044462000.0,"The Washington Trust Company, of Westerly",,
253,4988062000.0,"TBK BANK, SSB",,
254,4982174000.0,Farmers & Merchants Bank of Central California,,
255,4975192000.0,Wilson Bank and Trust,36.1559995,-85.4999331
256,4963966000.0,Choice Financial Group,,
257,4958287000.0,First Internet Bank of Indiana,,
258,4925326000.0,Old Second National Bank,41.7585877,-88.3181513
259,4878066000.0,Westamerica Bank,38.4520371,-122.7692311
260,4863199000.0,First International Bank & Trust,33.6203445,-111.9086987
261,4858195000.0,Great Southern Bank,-37.8168153,144.9584973
262,4827275000.0,The American National Bank of Texas,32.73674,-96.27765
263,4814717000.0,SmartBank,30.4155769,-87.2165181
264,4809048000.0,Mid Penn Bank,41.0267624,-78.4376381
265,4749472000.0,CFG Bank,33.973324,-6.8293154
266,4735270000.0,Brookline Bank,42.3587184,-71.0568699
267,4703588000.0,Independent Bank,32.791534,-96.7851045
268,4702210000.0,Heritage Bank of Commerce,37.5469047,-121.9726682
269,4699650000.0,Mercantile Bank,28.5412149,-81.3791548
270,4691150000.0,Green Dot Bank DBA Bonneville Bank,,
271,4668611000.0,River City Bank,38.2513217,-85.7612052
272,4660164000.0,American National Bank,41.2119969,-96.040349
273,4651018000.0,First Financial Bank,39.1391976,-84.4431146
274,4650117000.0,Orrstown Bank,40.4930753,-77.1149789
275,4642972000.0,HarborOne Bank,42.3578564,-71.0533801
276,4617041000.0,Hinsdale Bank & Trust Company,,
277,4603506000.0,Emigrant Bank,40.7139691,-74.0050766
278,4530138000.0,Alerus Financial,47.897524,-97.0674157
279,4521961000.0,The Farmers National Bank of Canfield,,
280,4512865000.0,Equity Bank,-4.3506236,15.3328616
281,4509737000.0,Northbrook Bank and Trust Company,36.6317955,-79.394823
282,4504652000.0,Morton Community Bank,40.6117973,-89.4601581
283,4471419000.0,Southern Bank and Trust Company,14.5546019,121.018642
284,4400038000.0,CTBC Bank Corp. (USA),,
285,4398517000.0,Heartland Bank and Trust Company,39.8378809,-89.6051078
286,4390641000.0,The Cape Cod Five Cents Savings Bank,41.6635847,-70.2939257
287,4384645000.0,Community Bank of Mississippi,,
288,4373262000.0,Bradesco Bank,-1.298769,-48.4877385
289,4331202000.0,Needham Bank,52.622738,0.2000524
290,4318445000.0,Peoples Security Bank and Trust Company,,
291,4301664000.0,Enterprise Bank and Trust Company,28.0116691,-82.7107681
292,4278551000.0,Southern Bank,36.8877484,-76.2955511
293,4248815000.0,Third Coast Bank,29.9433471,-93.9885308
294,4201633000.0,Carter Bank & Trust,36.0601092,-79.8812182
295,4179090000.0,Bridgewater Bank,44.9351467,-93.3367487
296,4177801000.0,Northfield Bank,40.6115912,-74.1593147
297,4159178000.0,The Canandaigua National Bank and Trust Company,,
298,4137957000.0,Dacotah Bank,43.5471322,-96.6851932
299,4133389000.0,Firstrust Savings Bank,5.6058925,-0.2470301
300,4085958000.0,InterBank,-6.8987823,-79.8407451
301,4083689000.0,First Bank & Trust,33.5224354,-101.8882393
302,4002522000.0,Vantage Bank Texas,26.1946451,-98.2310353
303,4001676000.0,Stride Bank,35.480527,-97.5144509
304,3995119000.0,Leader Bank,42.3535343,-71.046615
305,3968192000.0,Arrow Bank,43.2866687,-73.6396586
306,3910466000.0,First National Bank Texas,30.2764221,-95.4642814
307,3898869000.0,City Bank,51.711261,-1.9560392
308,3870948000.0,Texas Bank and Trust Company,29.7365442,-95.3060683
309,3860052000.0,VeraBank,32.5462339,-94.7303516
310,3849883000.0,Northpointe Bank,39.0957331,-108.599213
311,3839713000.0,Banesco USA,18.4261124,-66.057701
312,3836863000.0,Coastal Community Bank,47.9798036,-122.2080715
313,3824639000.0,Inwood National Bank,33.1926373,-97.110049
314,3814385000.0,Monet Bank,10.483637,-66.8881718
315,3787781000.0,The Fidelity Bank,19.2957305,-81.3799224
316,3758705000.0,American Business Bank,35.1348874,-106.6087374
317,3748708000.0,"Bank First, N.A.",,
318,3746260000.0,Bessemer Trust Company,,
319,3746231000.0,Five Star Bank,42.8900795,-78.8739198
320,3740581000.0,HomeTrust Bank,35.2120879,-80.8270472
321,3734545000.0,First National Bank of America,40.4394921,-80.0009447
322,3726072000.0,International Bank of Commerce,29.6883964,-95.5869734
323,3656733000.0,ChoiceOne Bank,43.1913437,-86.2689059
324,3646426000.0,Southern First Bank,32.7879995,-79.9316746
325,3585477000.0,Bank of Stockton,37.9566588,-121.2878033
326,3580147000.0,First National Bank Alaska,61.2048219,-149.8687793
327,3550393000.0,First State Community Bank,38.9079875,-92.343855
328,3506030000.0,Town Bank,38.9876126,-74.9532299
329,3494458000.0,The First Bank and Trust Company,28.5405565,-81.3792466
330,3481127000.0,Hills Bank and Trust Company,41.6598806,-91.5350114
331,3473066000.0,PeoplesBank,39.3385543,-76.5506057
332,3472637000.0,Citizens First Bank,43.5066903,-90.6686496
333,3470416000.0,Barrington Bank & Trust Company,,
334,3434961000.0,RCB Bank,35.1427879,33.3739302
335,3428956000.0,Union Savings Bank,39.9046481,-86.0677277
336,3375906000.0,Gate City Bank,46.9101488,-96.7869698
337,3360769000.0,"NATIONAL COOPERATIVE BANK, N.A.",26.6605766,87.7000286
338,3345302000.0,California Bank of Commerce,37.5469047,-121.9726682
339,3341343000.0,First Guaranty Bank,32.9128127,-96.6380463
340,3328921000.0,West Bank,44.9719278,-93.2463486
341,3328164000.0,Northeast Bank,44.9991437,-93.2689367
342,3318864000.0,Institution for Savings in Newburyport and Its Vicinity,,
343,3317286000.0,United Community Bank,3.1892015,101.7311394
344,3307886000.0,Bank of Marin,38.4390724,-122.7124988
345,3307630000.0,Carrollton Bank,38.58814,-90.2925708
346,3305747000.0,Bar Harbor Bank & Trust,42.9930662,-71.4633809
347,3300418000.0,The First National Bank of Long Island,40.6183258,-74.0303957
348,3292418000.0,Sumitomo Mitsui Trust Bank (U.S.A.) Limited,,
349,3290913000.0,Wells Fargo Bank South Central,40.7631665,-111.8800379
350,3250621000.0,Civista Bank,41.4574555,-82.7107863
351,3249246000.0,Independence Bank of Kentucky,37.7584289,-87.1429616
352,3245788000.0,First Business Bank,44.2433852,-88.4648054
353,3221855000.0,Comenity Bank,,
354,3190665000.0,Primis Bank,38.934852,-77.179627
355,3173334000.0,Wheaton Bank & Trust,,
356,3171061000.0,Royal Business Bank,40.7148225,-73.996508
357,3167827000.0,Woori America Bank,40.7477537,-73.985317
358,3159687000.0,River Bank & Trust,32.5841262,-85.4891388
359,3153301000.0,First Federal Bank,32.7995763,-79.9519523
360,3147363000.0,"Spencer Savings Bank, SLA",,
361,3141961000.0,"MashreqBank, PSC",,
362,3138508000.0,FineMark National Bank & Trust,26.2147122,-81.8013711
363,3119795000.0,First Bank,44.9405611,26.025349
364,3099264000.0,Bravera Bank,45.7547155,-108.6221942
365,3066134000.0,Frandsen Bank & Trust,44.167334,-93.9647125
366,3009233000.0,The Bank of East Asia Ltd.,,
367,2991239000.0,Commercial Bank of California,37.7830048,-122.4659625
368,2981166000.0,Sunwest Bank,43.6154383,-116.2441428
369,2977155000.0,SouthEast Bank,23.7476704,90.3706347
370,2972816000.0,Security Bank of Kansas City,39.1009513,-94.6351411
371,2967225000.0,Gulf Coast Bank and Trust Company,,
372,2951542000.0,Cache Valley Bank,41.7334606,-111.835204
373,2944704000.0,State Bank of India,8.5386859,77.0212491
374,2933294000.0,Central Bank & Trust Co.,42.9905201,-108.872395
375,2932232000.0,ENCORE BANK,30.2675672,-97.7510257
376,2931170000.0,Community West Bank,36.8115676,-119.8081004
377,2904226000.0,Capital Bank,40.6365065,-73.9907995
378,2895674000.0,The National Bank of Indianapolis,39.8434982,-86.1549339
379,2892368000.0,Banterra Bank,37.7310825,-88.9281221
380,2888396000.0,Exchange Bank,41.2611721,-96.0401116
381,2855810000.0,D. L. Evans Bank,43.6409145,-116.2373526
382,2853421000.0,Bank of the Sierra,36.8090925,-119.7760476
383,2834729000.0,Home Bank,35.8073733,51.4626553
384,2833177000.0,Red River Bank,32.3571253,-93.72431
385,2812231000.0,Parkway Bank and Trust Company,39.8378809,-89.6051078
386,2802120000.0,First Farmers Bank & Trust Co.,40.8096227,-85.8335273
387,2800884000.0,"Mizrahi Tefahot Bank, Ltd.",,
388,2795803000.0,WestStar Bank,32.3147516,-106.7431415
389,2783696000.0,Lone Star National Bank,29.5833246,-98.5356857
390,2781277000.0,Northrim Bank,61.1959131,-149.9049922
391,2774449000.0,Bank of Utah,40.7680128,-111.885763
392,2766958000.0,Metro City Bank,28.116435,-82.3788403
393,2762903000.0,Bankwell Bank,41.1397172,-73.2725143
394,2756150000.0,Macatawa Bank,42.9266894,-85.6074551
395,2754708000.0,Minnwest Bank,44.0194632,-92.4642236
396,2753444000.0,Manasquan Bank,40.5419696,-74.36186
397,2748184000.0,The Bank of Tampa,27.9517585,-82.5226264
398,2744106000.0,Celtic Bank,40.7632982,-111.8885546
399,2741612000.0,Texas Exchange Bank,27.5984224,-98.4132823
400,2723247000.0,PCB Bank,31.8936886,35.2065966
401,2716753000.0,First Carolina Bank,33.9974629,-80.9986291
402,2713846000.0,"Guaranty Bank & Trust, N.A.",5.57221,-0.2032942
403,2712374000.0,Farmers Bank & Trust Company,,
404,2712084000.0,First National Bank,40.5530732,-105.1183686
405,2708325000.0,Banco do Brasil Americas,-23.0005539,-43.3294747
406,2702939000.0,The Farmers & Merchants State Bank,,
407,2702620000.0,First Community Bank,-1.2856167,36.8223468
408,2702083000.0,First Dakota National Bank,43.5251801,-96.7733341
409,2700807000.0,Bank of Ann Arbor,42.274479,-83.7764344
410,2687587000.0,BCB Community Bank,40.5534407,-74.2817985
411,2678976000.0,Old Plank Trail Community Bank,41.4694169,-87.6370351
412,2671921000.0,The Bank of Greene County,42.0387256,-74.1126858
413,2648929000.0,Colony Bank,32.0751626,-81.0926865
414,2646230000.0,"Austin Bank, Texas",32.5263523,-94.3544988
415,2632562000.0,1st Security Bank of Washington,,
416,2607851000.0,First PREMIER Bank,43.5526896,-96.6709412
417,2607592000.0,Fidelity Bank,34.9547207,-81.9344627
418,2595775000.0,STAR Financial Bank,41.1447328,-85.1630521
419,2595215000.0,Northern Bank & Trust Company,42.5237809,-71.1036361
420,2592308000.0,West Texas National Bank,30.3587669,-103.6615641
421,2589626000.0,Hingham Institution for Savings,42.3441009,-71.0709991
422,2589465000.0,"MVB Bank, Inc",,
423,2585075000.0,Jefferson Bank,29.375631,-98.4490172
424,2567945000.0,Mascoma Bank,43.6849306,-72.270335
425,2565787000.0,Village Bank and Trust,40.8018128,-73.6468447
426,2560134000.0,Lake Ridge Bank,43.0964479,-89.5242144
427,2557926000.0,ACNB Bank,39.4143119,-77.4107335
428,2556651000.0,Oakstar Bank,37.1591083,-93.2806477
429,2549057000.0,Bristol County Savings Bank,41.9485825,-71.2785911
430,2537459000.0,ANB Bank,21.4102816,39.8675864
431,2532333000.0,First Western Trust Bank,42.8668515,-109.8587289
432,2529076000.0,The Bank of Missouri,37.1806462,-93.2501016
433,2511891000.0,Texas Regional Bank,25.9660018,-97.5046505
434,2507946000.0,First Community Bank,-1.2856167,36.8223468
435,2504392000.0,First Fidelity Bank,33.6941906,-112.0993314
436,2495027000.0,Stearns Bank,33.5815577,-111.8821603
437,2476410000.0,Habib American Bank,,
438,2474938000.0,Bank of Guam,7.0882971,171.3789741
439,2470967000.0,NEXTIER BANK,40.6323067,-79.9401734
440,2467149000.0,Bank Rhode Island,41.8314402,-71.4165503
441,2459051000.0,The Fidelity Deposit and Discount Bank,,
442,2448618000.0,Merchants Bank,49.2817958,-123.1047386
443,2437119000.0,Chemung Canal Trust Company,42.4285983,-76.5084638
444,2434989000.0,LINKBANK,40.0754455,-76.3239369
445,2434039000.0,Southern States Bank,32.616822,-85.4643403
446,2418707000.0,BayCoast Bank,41.7104417,-71.142476
447,2418384000.0,TIB,52.3813521,9.720133
448,2412290000.0,"North Shore Bank, a Co-operative Bank",,
449,2411929000.0,American First National Bank,32.709566,-97.0808817
450,2411722000.0,BankFirst Financial Services,,
451,2408609000.0,Amboy Bank,40.4945263,-74.4439773
452,2408464000.0,Pinnacle Bank,36.0776221,-86.9497436
453,2401804000.0,Academy Bank,39.099749,-94.5818595
454,2401792000.0,Cornerstone Bank,33.862802,-84.4394842
455,2397051000.0,Quad City Bank and Trust Company,,
456,2395555000.0,Libertyville Bank & Trust Company,42.2879765,-87.9547375
457,2394382000.0,Midwest BankCentre,38.5805934,-90.2400312
458,2392693000.0,National Exchange Bank and Trust,43.7884803,-88.447432
459,2392308000.0,Bank Independent,34.6495363,-86.5676292
460,2388408000.0,Guaranty Bank and Trust Company,40.3933673,-104.7554385
461,2384283000.0,Emprise Bank,39.0900829,-94.5846055
462,2383362000.0,"CB&S Bank, Inc.",,
463,2369718000.0,First Citizens Community Bank,40.7927103,-77.8614497
464,2357161000.0,Union Savings Bank,39.9046481,-86.0677277
465,2348401000.0,Investar Bank,30.3972864,-91.1141839
466,2334995000.0,State Bank of Texas,41.9974622,-87.6953772
467,2329915000.0,Westfield Bank,55.8844217,-3.0834659
468,2303482000.0,Penn Community Bank,40.3137551,-75.1046969
469,2299127000.0,Bank of New Hampshire,43.2173803,-71.4851601
470,2292810000.0,Sunrise Banks,44.9864958,-93.275786
471,2289150000.0,Armstrong Bank,35.2324935,-97.4939136
472,2286587000.0,Orange Bank & Trust Company,41.4037668,-74.3261803
473,2281179000.0,Susser Bank,30.5154764,-97.6894001
474,2277829000.0,UniBank for Savings,,
475,2274546000.0,Republic Bank of Chicago,41.7744319,-87.7222838
476,2270619000.0,Maine Community Bank,43.8876985,-94.1566686
477,2265224000.0,American Bank,38.9028025,-77.0311017
478,2256646000.0,West Coast Community Bank,36.9773958,-122.025309
479,2237421000.0,First Federal Savings and Loan Association of Lakewood,,
480,2234471000.0,KS StateBank,12.9745168,80.1839459
481,2229614000.0,BankNewport,41.4903383,-71.3146962
482,2225409000.0,Citizens and Farmers Bank,37.2554028,-76.7312555
483,2224742000.0,Texas Partners Bank,,
484,2209648000.0,American Momentum Bank,27.7723606,-82.6343933
485,2195430000.0,CalPrivate Bank,,
486,2191167000.0,Open Bank,34.0612768,-118.3062904
487,2180843000.0,First Citizens National Bank,35.9146164,-86.8287324
488,2175574000.0,Blue Ridge Bank,37.5788832,-77.514167
489,2175499000.0,Unity Bank,7.7957113,6.7356118
490,2174193000.0,Lakeside Bank,41.9326015,-87.6687839
491,2174098000.0,First United Bank,30.4969357,-97.7743446
492,2162803000.0,Machias Savings Bank,43.657544,-70.2555542
493,2153773000.0,Bryant Bank,33.2113497,-87.561842
494,2153257000.0,State Bank of Southern Utah,37.1054898,-113.5550854
495,2151616000.0,INB,16.5349459,-88.4404508
496,2145099000.0,Avidia Bank,42.3195015,-71.6454893
497,2142145000.0,Community National Bank,32.0153689,-102.1572305
498,2138306000.0,Centreville Bank,41.4308098,-72.0822795
499,2135069000.0,United Business Bank,37.7896802,-122.3892489
500,2134799000.0,Home Federal Bank of Tennessee,,
501,2134650000.0,Vista Bank,44.4377066,26.097682
502,2133371000.0,"Horizon Bank, SSB",,
503,2133099000.0,Southern Bancorp Bank,35.9344604,-89.9105309
504,2131772000.0,Meridian Bank,39.9593244,-75.6047846
505,2128023000.0,Western State Bank,33.4504812,-111.7038038
506,2125134000.0,"El Dorado Savings Bank, F.S.B.",,
507,2121828000.0,Peoples Bank,41.7272005,-87.5514381
508,2120521000.0,Citizens & Northern Bank,41.5115527,-78.2347245
509,2113973000.0,"Traditional Bank, Inc.",,
510,2113108000.0,American National Bank & Trust,36.6271419,-79.3980344
511,2108473000.0,TexasBank,31.8972159,-98.6053241
512,2094601000.0,Beverly Bank & Trust Company,35.1474438,-80.8257723
513,2091418000.0,Industrial and Commercial Bank of China USA,37.754335,-122.4774291
514,2088988000.0,North Shore Bank,43.0553602,-87.9140169
515,2080369000.0,FCB Banks,38.7317272,-89.8951512
516,2075766000.0,First National Bank,40.5530732,-105.1183686
517,2074916000.0,Interaudi Bank,,
518,2037161000.0,Pinnacle Bank,36.0776221,-86.9497436
519,2030903000.0,Ponce Bank,40.7608036,-73.9226035
520,2028779000.0,Crews Bank & Trust,,
521,2028491000.0,Bank Five Nine,43.1174529,-87.9172492
522,2027474000.0,Medallion Bank,40.6312167,-111.8612525
523,2025680000.0,Texas First Bank,30.0779249,-94.1681701
524,2025319000.0,Georgia Banking Company,33.2767955,-84.2907816
525,2014506000.0,South Shore Bank,42.2668038,-71.0152357
526,2011439000.0,The Bank of Princeton,40.3656079,-74.9462062
527,2006459000.0,Wayne Bank,39.8275983,-84.8950867
528,1989557000.0,Extraco Banks,31.5552597,-97.1230264
529,1982584000.0,"Sterling Bank and Trust, FSB",,
530,1982110000.0,Queensborough National Bank & Trust Company,33.4898589,-82.0740876
531,1972018000.0,Community National Bank & Trust,37.9216234,-95.4025487
532,1957033000.0,United Bank of Iowa,42.6537676,-95.2013461
533,1944770000.0,Somerset Trust Company,39.6509086,-78.9116574
534,1940859000.0,"North American Savings Bank, F.S.B.",,
535,1938553000.0,Coastal States Bank,32.1625779,-80.767887
536,1936408000.0,Hanover Community Bank,42.5444243,-79.1663847
537,1931024000.0,Avidbank,37.4452985,-122.1640044
538,1930078000.0,Cogent Bank,,
539,1927714000.0,John Marshall Bank,39.0845426,-77.1527681
540,1922281000.0,LCNB National Bank,39.1382541,-84.4431853
541,1913810000.0,MainStreet Bank,38.8619106,-77.2928914
542,1912742000.0,Five Points Bank,40.9406196,-98.3582654
543,1909968000.0,The First National Bank of Fort Smith,,
544,1908034000.0,FVCbank,38.9075481,-77.0238207
545,1902775000.0,Commercial Bank,31.9921737,-102.0989637
546,1900906000.0,Evans Bank,42.9223509,-78.8767262
547,1899401000.0,Tradition Capital Bank,,
548,1894915000.0,Dedham Institution for Savings,,
549,1894860000.0,The Ephrata National Bank,,
550,1888854000.0,First Western Bank & Trust,48.2093352,-101.3150896
551,1883959000.0,Cedar Rapids Bank and Trust Company,42.0340948,-91.6979887
552,1883873000.0,Dogwood State Bank,35.8553864,-78.6424204
553,1878489000.0,Anderson Brothers Bank,33.6819513,-78.952826
554,1877554000.0,Farmers and Merchants Trust Company of Chambersburg,,
555,1877313000.0,Country Club Bank,39.0396529,-94.5876397
556,1877078000.0,Schaumburg Bank & Trust Company,,
557,1871146000.0,Falcon International Bank,27.5443138,-99.4821133
558,1866953000.0,The Lyons National Bank,,
559,1863321000.0,"Westfield Bank, FSB",,
560,1863056000.0,United Bank,38.351157,-81.6378371
561,1859554000.0,First Bank,44.9405611,26.025349
562,1858837000.0,Central Bank,37.9323657,58.3751167
563,1854033000.0,The Bank of Commerce,43.4973967,-112.0658924
564,1848334000.0,Ion Bank,41.5259722,-72.7578399
565,1841726000.0,Montecito Bank & Trust,34.4217942,-119.7018621
566,1841624000.0,Guaranty Bank,37.2414457,-93.3159545
567,1831517000.0,Starion Bank,43.0913046,-89.5239611
568,1830808000.0,Isabella Bank,17.5883436,-88.5354184
569,1829689000.0,Cashmere Valley Bank,46.5998678,-120.5859891
570,1815479000.0,Luana Savings Bank,41.6155871,-93.8448816
571,1811621000.0,First Savings Bank,31.7641166,-106.4922522
572,1805461000.0,Think Mutual Bank,43.9547912,-92.4619546
573,1805047000.0,National Bank of Commerce,-6.7476582,39.2840052
574,1802326000.0,Bank Iowa,41.5861223,-93.8096939
575,1793974000.0,IncredibleBank,43.0981611,-89.5253614
576,1790012000.0,CFBank,41.4904694,-81.7091812
577,1785605000.0,Golden Bank,52.2207061,-3.0110708
578,1778303000.0,State Bank of the Lakes,42.4095154,-88.033444
579,1776740000.0,Planters Bank & Trust Company,,
580,1771505000.0,Bank of Tennessee,36.3416334,-82.4036737
581,1771257000.0,Pioneer Bank,42.6496961,-73.7531345
582,1761583000.0,Security First Bank,40.7380227,-96.6450628
583,1753848000.0,Peoples Bank,41.7272005,-87.5514381
584,1752763000.0,First County Bank,41.0963034,-73.52007
585,1751848000.0,PCSB Bank,41.0495703,-94.366852
586,1750665000.0,Marquette Bank,41.7786559,-87.6840085
587,1748258000.0,"South Central Bank, Inc.",,
588,1742336000.0,Bankesb,42.2028122,-72.6192105
589,1736772000.0,Texas Community Bank,29.733852,-95.419573
590,1730111000.0,First Community Bank,-1.2856167,36.8223468
591,1729285000.0,The Village Bank,53.5903888,-1.7506754
592,1728617000.0,American Bank & Trust,36.9787886,-86.4376347
593,1719649000.0,Security State Bank & Trust,30.0602538,-99.165379
594,1718906000.0,Builtwell Bank,36.0096683,-84.0201223
595,1714115000.0,First American Bank,41.7200075,-87.775515
596,1713777000.0,Oak Valley Community Bank,37.6409413,-120.9969652
597,1709809000.0,Fidelity Bank & Trust,42.5160594,-90.7348819
598,1707941000.0,Florence Bank,42.3354336,-72.6702947
599,1706087000.0,One Florida Bank,,
600,1703394000.0,ESSA Bank & Trust,40.6960039,-75.2571342
601,1702423000.0,Opportunity Bank of Montana,46.5908657,-112.0138366
602,1699871000.0,Citizens National Bank,36.0072488,-83.7689636
603,1699624000.0,Esquire Bank,,
604,1686685000.0,"Heritage Bank, Inc.",,
605,1684568000.0,Territorial Savings Bank,21.2866537,-157.8133168
606,1683078000.0,"Peoples National Bank , N.A.",,
607,1680469000.0,Mabrey Bank,36.1335842,-95.9548954
608,1677871000.0,First Citizens Bank,45.5249242,-122.8390145
609,1677773000.0,First Northern Bank of Dixon,,
610,1674659000.0,Signature Bank,40.7074134,-74.0121793
611,1674130000.0,The National Bank of Blacksburg,,
612,1673624000.0,First Fed Bank,43.6599336,-116.3241006
613,1670867000.0,Tri City National Bank,42.9833263,-87.9477695
614,1669985000.0,Parke Bank,39.9535665,-75.1576334
615,1667805000.0,Citizens National Bank of Texas,32.3472007,-97.3930595
616,1665039000.0,QNB Bank,36.8220445,10.192611
617,1654421000.0,Mission Bank,34.6795242,-118.1652063
618,1652188000.0,SouthPoint Bank,33.4382835,-86.7222984
619,1651093000.0,Timberland Bank,47.186479,-122.4622669
620,1649517000.0,Omb Bank,,
621,1647880000.0,First State Bank,42.3312696,-83.0482988
622,1644471000.0,FirstBank Southwest,35.1621527,-101.922288
623,1633038000.0,Beneficial State Bank,47.6144198,-122.3126221
624,1632701000.0,Oakworth Capital Bank,53.8413266,-1.9419575
625,1632305000.0,Legacy Bank & Trust Company,33.1074111,-96.8407856
626,1631883000.0,First United Bank & Trust,39.6501414,-78.7595838
627,1631694000.0,First State Bank of Uvalde,29.725449,-99.7622062
628,1631326000.0,Whitaker Bank,37.9998931,-84.5198472
629,1630180000.0,First Bank Chicago,,
630,1627800000.0,Central Bank,37.9323657,58.3751167
631,1620427000.0,WebBank,,
632,1619576000.0,Bank Of Clarke,39.1101388,-77.5532187
633,1618938000.0,Cornerstone Bank,33.862802,-84.4394842
634,1612425000.0,Embassy Bank for the Lehigh Valley,40.5177073,-75.5613904
635,1610029000.0,Kennebunk Savings Bank,43.1442526,-70.6465016
636,1605901000.0,First Farmers and Merchants Bank,35.9259371,-86.8656103
637,1605730000.0,Thomaston Savings Bank,41.6677664,-72.9234622
638,1594704000.0,North Dallas Bank & Trust Co.,33.049717,-96.7933385
639,1593311000.0,NorthEast Community Bank,,
640,1593032000.0,The First National Bank in Sioux Falls,,
641,1589312000.0,Norway Savings Bank,43.658667,-70.2564848
642,1585367000.0,"Planters Bank, Inc.",,
643,1582341000.0,The Citizens National Bank of Meridian,,
644,1581591000.0,Chain Bridge Bank,52.9695967,-0.057244
645,1579748000.0,The Conway National Bank,33.7561451,-78.8652743
646,1578449000.0,Shinhan Bank America,33.8214352,-118.3287759
647,1576887000.0,Mountain Commerce Bank,36.3835904,-82.4242024
648,1572856000.0,South Atlantic Bank,32.7893916,-79.9295807
649,1570557000.0,Great Plains National Bank,46.8867874,-103.199573
650,1569089000.0,Lincoln Savings Bank,41.5853713,-93.6435786
651,1568310000.0,"Waterford Bank, N.A.",35.8595031,-78.715313
652,1561023000.0,The Farmers & Merchants Bank,38.3926277,-78.811447
653,1558261000.0,Hawthorn Bank,54.0571156,-1.163734
654,1553537000.0,American Commercial Bank & Trust,,
655,1552751000.0,North Easton Savings Bank,42.0258478,-71.1182486
656,1551330000.0,Bank 7,35.4439936,-99.8936586
657,1543924000.0,The Middlefield Banking Company,41.5858069,-81.2157481
658,1540519000.0,Citizens Community Federal,,
659,1540164000.0,Newtown Savings Bank,41.2699749,-73.1290262
660,1536950000.0,Regent Bank,53.3188811,-2.2429073
661,1536484000.0,Lead Bank,39.0915155,-94.5834161
662,1531328000.0,First Financial Bank,39.1391976,-84.4431146
663,1518979000.0,Peoples Bank,41.7272005,-87.5514381
664,1516777000.0,Country Bank for Savings,34.5869776,-112.3407761
665,1514437000.0,"CNB Bank and Trust, N.A.",,
666,1511974000.0,"Cornerstone Capital Bank, SSB",,
667,1511029000.0,One Bank of Tennessee,36.1602723,-85.5000125
668,1506395000.0,"BankWest, Inc.",,
669,1502775000.0,Crystal Lake Bank and Trust Company,,
670,1499239000.0,F&M Bank,37.8258332,-122.2090531
671,1495374000.0,The Lowell Five Cent Savings Bank,42.6462473,-71.3092115
672,1477925000.0,Commonwealth Business Bank,-30.5143075,151.6678468
673,1465832000.0,First Bank of the Lake,38.1456364,-92.6276392
674,1464251000.0,Bank of Springfield,39.7585851,-89.7161168
675,1453409000.0,Union County Savings Bank,40.6552399,-74.3089865
676,1438505000.0,Chesapeake Bank,37.2827009,-76.7185343
677,1436965000.0,The Adirondack Trust Company,,
678,1436550000.0,Yakima Federal Savings and Loan Association,46.226739,-119.2431808
679,1434678000.0,Virginia National Bank,37.5690596,-77.4744303
680,1429154000.0,Blue Foundry Bank,40.741222,-74.0299621
681,1424475000.0,Kitsap Bank,47.6016433,-122.18595
682,1423879000.0,The Moody National Bank,,
683,1414295000.0,"WaterStone Bank, SSB",,
684,1401464000.0,Maspeth Federal Savings and Loan Association,,
685,1399017000.0,Citizens Bank of Lafayette,,
686,1397488000.0,Citizens Alliance Bank,,
687,1394686000.0,Availa Bank,41.7487689,-93.6011296
688,1394355000.0,Blackhawk Bank & Trust,41.4509135,-90.5722555
689,1391702000.0,Forcht Bank,39.0929753,-84.3867815
690,1390502000.0,Bank of Travelers Rest,34.8357629,-82.3172207
691,1389190000.0,Commercial Bank of Texas,31.6513407,-94.656302
692,1386475000.0,Citizens Tri-County Bank,35.223893,-85.2193092
693,1385916000.0,Plumas Bank,40.5892156,-122.357841
694,1385459000.0,Bank of New England,43.0010311,-71.4641241
695,1381972000.0,Nelnet Bank,1.4376453,31.3493908
696,1376969000.0,Providence Bank & Trust,41.7523941,-87.6242866
697,1376879000.0,Sutton Bank,54.2363104,-1.2095682
698,1374912000.0,CBI Bank & Trust,41.6921246,-91.5669573
699,1374347000.0,"Transportation Alliance Bank, Inc. d/b/a TAB Bank",,
700,1370746000.0,The Citizens Bank,34.3717148,-89.4967153
701,1370717000.0,Cape Cod Co-operative Bank,,
702,1370450000.0,Main Street Bank,33.8101427,-117.9185053
703,1368231000.0,THE VINTON COUNTY NATIONAL BANK,,
704,1361369000.0,Fall River Five Cents Savings Bank,,
705,1359162000.0,Horicon Bank,44.0324376,-88.589227
706,1353694000.0,Volunteer Bank,35.8435714,-86.4927253
707,1349607000.0,Cornerstone Bank,33.862802,-84.4394842
708,1349012000.0,Security Federal Bank,34.0104173,-81.0391998
709,1345743000.0,Bank of Bird-in-Hand,40.1714559,-76.381701
710,1345096000.0,Kennebec Savings Bank,44.311519,-69.7797346
711,1345001000.0,Bankhometown,41.8053033,-71.8837909
712,1344738000.0,Landmark National Bank,39.0297736,-95.7647238
713,1341584000.0,Fidelity Co-operative Bank,,
714,1341204000.0,Troy Bank & Trust Company,,
715,1340390000.0,Bonvenu Bank,32.5290577,-93.7110002
716,1339532000.0,First National Bank of Central Texas,31.6291678,-97.2437503
717,1339421000.0,Journey Bank,41.0562345,-76.2344272
718,1334858000.0,Citizens Bank and Trust,44.8676071,-94.3764273
719,1333884000.0,Androscoggin Savings Bank,44.0949514,-70.2311144
720,1328514000.0,Newburyport Five Cents Savings Bank,,
721,1326464000.0,"John Deere Financial, f.s.b.",,
722,1326113000.0,Watertown Savings Bank,42.3765688,-71.2359348
723,1325797000.0,"The Security National Bank of Sioux City, Iowa",,
724,1325031000.0,Colorado Federal Savings Bank,39.5892422,-104.8323441
725,1323253000.0,American Bank of Commerce,30.3907411,-97.7134342
726,1322577000.0,Southern Michigan Bank & Trust,41.9243106,-84.6348662
727,1321719000.0,FFB Bank,48.1845987,11.1164514
728,1321617000.0,Independent Bank,32.791534,-96.7851045
729,1317106000.0,Morris Bank,32.5415919,-82.9478804
730,1306091000.0,Century Bank,30.6938927,-88.1260672
731,1303730000.0,First State Bank,42.3312696,-83.0482988
732,1302331000.0,Kish Bank,40.7855568,-77.8324393
733,1298331000.0,Meredith Village Savings Bank,43.5245045,-71.46696
734,1296438000.0,Pegasus Bank,32.9091588,-96.8060615
735,1296260000.0,East Cambridge Savings Bank,42.3732736,-71.0995406
736,1294307000.0,Community Bank,43.4769365,-75.3198885
737,1291469000.0,The First National Bank and Trust Company,,
738,1290895000.0,Alma Bank,40.6223078,-74.0257356
739,1290552000.0,Relyance Bank,34.7476538,-92.3979313
740,1288806000.0,The Ohio Valley Bank Company,,
741,1288587000.0,Bluestone Bank,41.8795391,-70.9231407
742,1286318000.0,CorTrust Bank,43.351951,-97.4364841
743,1286005000.0,Peoples Bank of Alabama,33.6185885,-86.6108362
744,1284785000.0,First National Bank of Pulaski,34.7245925,-86.5979426
745,1284442000.0,First Federal Savings Bank of Twin Falls,,
746,1282177000.0,Northfield Savings Bank,44.1483376,-72.6560392
747,1279908000.0,The Nodaway Valley Bank,,
748,1279246000.0,The State Bank and Trust Company,,
749,1274909000.0,Washington Financial Bank,40.1695716,-80.2454263
750,1271769000.0,Pathfinder Bank,43.0486082,-76.1527952
751,1271165000.0,Greene County Commercial Bank,,
752,1264939000.0,The Cecilian Bank,37.7357844,-85.8888993
753,1263808000.0,Ives Bank,41.4386632,-73.408239
754,1259905000.0,Community Financial Services Bank,,
755,1259399000.0,The Old Point National Bank of Phoebus,,
756,1256886000.0,Sabine State Bank and Trust Company,31.6337536,-93.6429865
757,1249700000.0,Farmers State Bank,35.0916219,-92.4415866
758,1243658000.0,BankFinancial,41.7882615,-87.603784
759,1243087000.0,Park State Bank,43.043244,-87.9080198
760,1242783000.0,Waukesha State Bank,43.01234,-88.233307
761,1242673000.0,First National Bank,40.5530732,-105.1183686
762,1242174000.0,Sterling Bank,37.7631135,-122.4847657
763,1239534000.0,Riverview Bank,45.6195194,-122.4765026
764,1238313000.0,Community State Bank,41.6272898,-93.5998944
765,1237300000.0,US Metro Bank,34.032522,-118.2506531
766,1237201000.0,Security Bank and Trust Company,29.3109,-96.09997
767,1235699000.0,International Finance Bank,35.1457278,129.0667134
768,1230503000.0,"The Citizens Bank of Philadelphia, Mississippi",,
769,1218817000.0,Alliance Bank,50.4410463,30.6199308
770,1217655000.0,Ameriserv Financial Bank,40.4804592,-78.7353838
771,1216964000.0,Armed Forces Bank,38.8745047,-77.0793834
772,1216547000.0,First Savings Bank,31.7641166,-106.4922522
773,1216251000.0,First National Bank,40.5530732,-105.1183686
774,1214960000.0,First American Bank and Trust,30.0137209,-90.240569
775,1213810000.0,Evergreen Bank Group,,
776,1212480000.0,InBank,38.7920536,-104.8001222
777,1211808000.0,The Park Bank,53.1615775,-2.20316
778,1211571000.0,First Commerce Bank,40.2510804,-74.5643783
779,1205990000.0,First State Bank,42.3312696,-83.0482988
780,1205915000.0,Farmers & Merchants Bank,30.8839432,-83.285577
781,1205337000.0,North State Bank,35.8140264,-78.7058634
782,1204428000.0,Signature Bank of Arkansas,36.1208275,-94.1184665
783,1203808000.0,American Heritage Bank,40.0766028,-75.0837766
784,1203222000.0,BankProv,43.0767446,-70.7610881
785,1200272000.0,Ulster Savings Bank,41.9332578,-74.0192247
786,1198506000.0,American State Bank,33.5347336,-101.8887216
787,1198486000.0,Evolve Bank & Trust,,
788,1197173000.0,Gateway First Bank,36.5459788,-98.2702667
789,1197137000.0,Fortis Bank,50.9471384,5.3478526
790,1194805000.0,PrimeSouth Bank,31.2148341,-81.483631
791,1190273000.0,The Merchants National Bank,,
792,1190074000.0,North American Banking Company,44.9130473,-93.3288937
793,1189367000.0,1st Summit Bank,40.3240761,-78.9159477
794,1188598000.0,Main Street Bank Corp.,,
795,1188588000.0,Chelsea Groton Bank,41.3488832,-72.1060651
796,1185295000.0,Union Bank,7.4073307,3.9100162
797,1184737000.0,Dakota Community Bank & Trust,46.9006488,-102.0460059
798,1184669000.0,Guardian Savings Bank,38.0207702,-84.5280758
799,1184612000.0,Old Dominion National Bank,,
800,1184260000.0,Chambers Bank,36.119602,-94.1359626
801,1176257000.0,International Bank of Commerce,29.6883964,-95.5869734
802,1169172000.0,The City National Bank of Sulphur Springs,,
803,1168932000.0,First Financial Northwest Bank,47.6198557,-122.1311525
804,1168629000.0,First Texas Bank,31.0800338,-97.7224495
805,1167692000.0,Exchange Bank,41.2611721,-96.0401116
806,1166292000.0,First National Bank of Tennessee,36.1545119,-85.4999744
807,1165457000.0,Dieterich Bank,38.7774483,-89.987465
808,1161824000.0,Meadows Bank,53.5748509,-2.3144352
809,1161622000.0,BankSouth,30.8721299,-83.2876237
810,1160390000.0,United Bank,38.351157,-81.6378371
811,1158578000.0,Bank Midwest,39.2678196,-94.4465009
812,1158530000.0,Jersey Shore State Bank,41.2416271,-77.0006804
813,1158124000.0,Northwest Bank,45.918411,-80.9270609
814,1156396000.0,Providence Bank,41.749792,-87.604842
815,1154270000.0,Benchmark Community Bank,36.696461,-77.5411654
816,1152345000.0,Pinnacle Bank - Wyoming,41.1605868,-104.7664916
817,1149389000.0,The Dart Bank,,
818,1141924000.0,American Riviera Bank,34.4232072,-119.7020735
819,1140787000.0,Summit Bank,37.8185079,-122.2626097
820,1140043000.0,Peoples State Bank,44.9583934,-89.6601737
821,1136535000.0,Cass Commercial Bank,38.6400541,-90.1941387
822,1133110000.0,Central National Bank,38.8933722,-77.0204658
823,1132274000.0,Grove Bank & Trust,42.1561141,-87.9645407
824,1131367000.0,The Richwood Banking Company,,
825,1129615000.0,Elkhorn Valley Bank & Trust,,
826,1128935000.0,Independence Bank,37.7584289,-87.1429616
827,1128513000.0,BayFirst National Bank,,
828,1126318000.0,Wallis Bank,29.6292576,-95.2346744
829,1126011000.0,County National Bank,41.9266108,-84.64187
830,1125528000.0,Greenfield Savings Bank,42.3343872,-72.6354654
831,1121446000.0,Central National Bank,38.8933722,-77.0204658
832,1119989000.0,Liberty National Bank,42.4384154,-96.3506878
833,1115926000.0,Signature Bank,40.7074134,-74.0121793
834,1114490000.0,SKYLINE NATIONAL BANK,36.661215,-80.9266061
835,1112041000.0,Merrimack County Savings Bank,43.2064125,-71.5366235
836,1110430000.0,First Bank Richmond,34.9218502,-79.7507247
837,1108814000.0,Citizens Bank,40.619286,-74.0325034
838,1106043000.0,Bath Savings Institution,43.7019966,-70.2894942
839,1105199000.0,Adams Bank & Trust,38.9901301,-104.8002224
840,1103890000.0,Bank of Central Florida,30.1952524,-85.6505349
841,1101507000.0,Bank of Idaho,43.589816,-116.2688714
842,1101293000.0,Farmers State Bank,35.0916219,-92.4415866
843,1100438000.0,Southwestern National Bank,29.7042317,-95.5508135
844,1097123000.0,Pacific National Bank,41.2831299,-70.0996461
845,1094670000.0,Security Bank & Trust Company,36.344398,-88.8735251
846,1091815000.0,Central Bank,37.9323657,58.3751167
847,1091370000.0,Benchmark Bank,33.0774832,-96.8191026
848,1087621000.0,First Harrison Bank,38.3247612,-85.820035
849,1085677000.0,State Bank of India (California),37.3485161,-121.9003694
850,1081787000.0,Blue Sky Bank,36.1047712,-95.9380259
851,1080141000.0,First Southern National Bank,37.902007,-84.5826778
852,1078389000.0,SULLIVAN BANK,37.4549767,-93.2735991
853,1077512000.0,Wood & Huston Bank,37.1447257,-93.2936554
854,1076525000.0,The Union Bank Company,40.7682927,-84.162097
855,1075100000.0,Bank of the Pacific,48.7520225,-122.4793379
856,1072699000.0,Frontier Bank,30.3314721,-97.7403486
857,1072140000.0,Community National Bank & Trust of Texas,,
858,1071288000.0,"The Commercial and Savings Bank of Millersburg, Ohio",,
859,1070466000.0,JD Bank,30.2271813,-93.3442657
860,1068374000.0,Citizens State Bank,41.1394038,-96.0511266
861,1067624000.0,Newtek Bank,,
862,1064329000.0,Uwharrie Bank,35.428959,-80.598457
863,1063300000.0,First State Bank of the Florida Keys,,
864,1061521000.0,West Gate Bank,40.7541952,-96.6387221
865,1056019000.0,Bank of Utica,43.100877,-75.2329962
866,1054853000.0,The Yellowstone Bank,,
867,1054680000.0,Montgomery Bank,38.6809995,-90.5060132
868,1053726000.0,Deerwood Bank,47.4922003,-94.8999989
869,1052606000.0,Apex Bank,12.9198566,77.5142588
870,1052252000.0,PeoplesSouth Bank,31.2187389,-85.4309728
871,1051980000.0,Everett Co-operative Bank,,
872,1050479000.0,Rhinebeck Bank,41.9330102,-74.0178809
873,1050135000.0,First Keystone Community Bank,40.9856763,-75.1920367
874,1047427000.0,Solvay Bank,43.0502519,-76.1506461
875,1046932000.0,Synergy Bank,33.2291742,-97.1590815
876,1045282000.0,CoreFirst Bank & Trust,39.6957593,-104.8677233
877,1045172000.0,The Guilford Savings Bank,,
878,1044325000.0,"Legend Bank, N.A.",,
879,1041772000.0,Legacy National Bank,36.120185,-94.1401697
880,1040829000.0,Two Rivers Bank & Trust,41.6685237,-91.4827849
881,1036957000.0,Sovereign Bank,42.3606934,-71.1458011
882,1036459000.0,Northwest Community Bank,41.8166129,-72.8305844
883,1035277000.0,"Liberty Savings Bank, F.S.B.",,
884,1031815000.0,"SouthStar Bank, S.S.B.",,
885,1029902000.0,Peoples Bank and Trust Company,38.5223907,-82.7179505
886,1029225000.0,Martha's Vineyard Bank,41.3900366,-70.5148048
887,1029026000.0,United Security Bank,36.7327366,-119.7857735
888,1028664000.0,Truxton Trust Company,,
889,1027664000.0,1st Financial Bank USA,43.4908929,-96.7728304
890,1027377000.0,Central Bank Illinois,41.372542,-89.464577
891,1026476000.0,First Bank of Alabama,34.7245925,-86.5979426
892,1025828000.0,Consumers National Bank,40.6896437,-81.1691281
893,1022758000.0,The First National Bank of Hutchinson,,
894,1022718000.0,Savings Bank of Mendocino County,39.1506171,-123.2091698
895,1020562000.0,First Federal Bank of Louisiana,30.2243537,-93.2204171
896,1017872000.0,BTC Bank,38.9904218,-92.3234954
897,1014636000.0,Southwest Missouri Bank,37.1121543,-94.4766547
898,1012462000.0,Peoples Bank,41.7272005,-87.5514381
899,1011119000.0,Rosedale Federal Savings and Loan Association,,
900,1011028000.0,Saco & Biddeford Savings Institution,43.6770375,-70.3568602
901,1010928000.0,First Bankers Trust Company,38.2509689,-85.7539835
902,1008950000.0,M1 Bank,24.3731444,54.5134541
903,1007457000.0,GBank,,
904,1006673000.0,Commerce West Bank,,
905,1005979000.0,PriorityOne Bank,31.3183663,-89.3982195
906,1004746000.0,Coastal Carolina National Bank,33.9976804,-81.0174027
907,1004706000.0,Texas Security Bank,32.0029884,-102.079062
908,1003175000.0,Amalgamated Bank of Chicago,,
909,1002002000.0,Commercial Bank & Trust Co.,36.4246551,-89.0575451
910,997392000.0,Citizens Bank & Trust,39.2472051,-94.5753306
911,997086000.0,Marquette Savings Bank,42.1160494,-80.0283894
912,996307000.0,Firstar Bank,36.0167409,-95.8690638
913,994226000.0,The Croghan Colonial Bank,,
914,993333000.0,First Oklahoma Bank,36.103891,-95.9722944
915,991098000.0,Hilltop National Bank,37.2086264,-80.3998337
916,990991000.0,Anstaff Bank,36.347501,-92.375329
917,990662000.0,First State Bank,42.3312696,-83.0482988
918,989962000.0,Plains Commerce Bank,43.5069862,-96.7735788
919,988423000.0,Webster Five Cents Savings Bank,,
920,986285000.0,Dallas Capital Bank,32.7930741,-96.561873
921,983518000.0,First Reliance Bank,34.0107975,-81.0382018
922,983421000.0,Sturdy Savings Bank,39.2529752,-74.6130092
923,982988000.0,Intercredit Bank,25.8080101,-80.3256856
924,980794000.0,Community National Bank,32.0153689,-102.1572305
925,980666000.0,Bank of Pontiac,40.5023374,-88.9034192
926,979798000.0,Bankers' Bank,43.0609904,-89.5161352
927,979541000.0,Jonesboro State Bank,,
928,977150000.0,Metro Bank,51.5587746,0.0732674
929,977123000.0,First IC Bank,32.9816187,-96.9105465
930,975224000.0,Midwest Regional Bank,38.213401,-90.3939326
931,971653000.0,"First National Bank, Ames, Iowa",42.0460724,-93.6201643
932,970586000.0,First Command Bank,35.0596415,-78.9693189
933,969745000.0,St. Louis Bank,38.6353703,-90.3921624
934,969256000.0,Liberty Bank and Trust Company,35.8520719,-79.570104
935,968848000.0,Citizens State Bank,41.1394038,-96.0511266
936,968178000.0,Genesee Regional Bank,,
937,965165000.0,First US Bank,33.1272292,-87.5500505
938,964868000.0,Farm Bureau Bank FSB,,
939,961165000.0,Citizens Bank,40.619286,-74.0325034
940,960787000.0,First National Bank and Trust Company of Newtown,,
941,958274000.0,Helm Bank USA,,
942,957369000.0,Parkside Financial Bank & Trust,,
943,957065000.0,Summit State Bank,38.4699295,-122.7246808
944,956923000.0,The Bennington State Bank,,
945,956818000.0,Bank of Labor,38.9934291,-94.7224624
946,955858000.0,Platte Valley Bank,39.248392,-94.6533806
947,954060000.0,Capital Community Bank,40.36939,-111.7679773
948,953643000.0,First Bank of Berne,40.8880496,-84.5811743
949,948037000.0,Forward Bank,49.8400337,24.0331416
950,946642000.0,First Arkansas Bank and Trust,,
951,946468000.0,Edmonton State Bank,37.0114588,-85.9033912
952,943764000.0,The Monticello Banking Company,,
953,943758000.0,Citizens Bank of Las Cruces,,
954,942556000.0,Pilot Grove Savings Bank,40.3968947,-91.3839145
955,942006000.0,Piedmont Federal Savings Bank,36.1195002,-80.3111373
956,941413000.0,Malaga Bank F.S.B.,,
957,941031000.0,Midwest Bank,40.728246,-96.6831339
958,940721000.0,First National Bank,40.5530732,-105.1183686
959,936836000.0,Peoples Bank,41.7272005,-87.5514381
960,936692000.0,The Dime Bank,41.5667043,-75.5153284
961,936128000.0,The Citizens Bank,34.3717148,-89.4967153
962,935013000.0,Mid America Bank,38.9719458,-95.2931561
963,934385000.0,Premier Bank,37.545925,-77.4406144
964,934222000.0,Crescent Bank,30.0033607,-90.1473185
965,934095000.0,The First National Bank of Bastrop,,
966,933206000.0,Middletown Valley Bank,39.4382453,-77.5270139
967,930424000.0,Brannen Bank,28.7542594,-82.2956013
968,929947000.0,Katahdin Trust Company,46.687882,-68.0123814
969,925921000.0,West Michigan Community Bank,42.9075484,-85.7929469
970,924538000.0,Studio Bank,23.7005108,90.4208379
971,922196000.0,MidCountry Bank,44.9213039,-93.4671953
972,919414000.0,Sound Community Bank,47.625886,-122.2921446
973,918952000.0,Bank of the James,37.3774206,-79.1845025
974,918164000.0,Solera National Bank,39.7109212,-105.0535583
975,917780000.0,Credit One Bank,29.8286564,-95.435041
976,917761000.0,The Honesdale National Bank,,
977,917608000.0,FIDELITY BANK,34.9547207,-81.9344627
978,917076000.0,The Converse County Bank,,
979,916779000.0,NBKC Bank,39.2688768,-94.4516704
980,916549000.0,Iowa State Bank,41.5899482,-93.6086451
981,913386000.0,Dayspring Bank,,
982,911417000.0,AuburnBank,,
983,911396000.0,The Freedom Bank of Virginia,,
984,910931000.0,Adirondack Bank,44.2967291,-73.998668
985,910164000.0,"Provident Savings Bank, F.S.B.",,
986,909589000.0,Royal Banks of Missouri,38.5980287,-90.3001013
987,908389000.0,Core Bank,41.2356372,-96.1955046
988,907499000.0,Kirkpatrick Bank,35.5319413,-97.5148393
989,907305000.0,First Palmetto Bank,33.9981158,-81.0076487
990,906720000.0,First National Bank and Trust Company of Weatherford,,
991,906550000.0,Northstar Bank,38.8558345,-104.8763773
992,904180000.0,Dime Bank,40.7492634,-73.8900585
993,902504000.0,Haven Savings Bank,40.7440839,-74.0286585
994,900955000.0,Pointbank,33.2291607,-97.1366457
995,899766000.0,First Southern Bank,37.7268759,-89.213185
996,898948000.0,R Bank,32.7541301,-97.3609068
997,897576000.0,First Metro Bank,34.7443478,-87.6712626
998,896791000.0,United Bank of Michigan,42.9619304,-85.6699805
999,896357000.0,Bank of Washington,38.5602728,-91.0127832
1000,895226000.0,The First National Bank of McGregor,,
1001,894193000.0,MutualOne Bank,,
1002,892930000.0,Cornerstone National Bank & Trust Company,,
1003,889385000.0,The Farmers National Bank of Danville,,
1004,888351000.0,"The First National Bank and Trust Co., Chickasha, Oklahoma",,
1005,887589000.0,American Community Bank & Trust,42.1826855,-88.4239849
1006,882771000.0,Border Bank,46.8539502,-96.8634755
1007,881399000.0,HCN Bank,33.5548567,-116.6744078
1008,879686000.0,International Bank of Chicago,41.9746292,-87.6594982
1009,878888000.0,The Bank of Fayette County,35.2430805,-89.3632206
1010,873294000.0,Bank Forward,47.9323802,-97.0715248
1011,872625000.0,Prime Meridian Bank,30.5043701,-84.2527041
1012,872620000.0,The Port Washington State Bank,,
1013,872000000.0,Patriot Bank,41.2321486,-73.0564473
1014,870922000.0,Climate First Bank,,
1015,870172000.0,Nano Banc,,
1016,869862000.0,Bank of Commerce,49.2684086,-123.1548949
1017,868628000.0,Alliance Bank Central Texas,,
1018,867169000.0,HomeTown Bank,29.2760561,-94.8105578
1019,866571000.0,The Bank of Old Monroe,,
1020,865887000.0,The North Side Bank and Trust Company,,
1021,863569000.0,Magyar Bank,40.4898652,-74.4612427
1022,863053000.0,Idaho First Bank,43.6190841,-116.2074663
1023,862884000.0,The Evangeline Bank and Trust Company,31.3684519,-92.4088423
1024,862270000.0,"Keystone Bank, SSB",,
1025,862180000.0,Belmont Bank & Trust Company,35.2530061,-81.0335698
1026,858090000.0,Farmers State Bank,35.0916219,-92.4415866
1027,857880000.0,Generations Bank,36.1181024,-94.158659
1028,856755000.0,Pentucket Bank,42.7748514,-71.1159445
1029,856740000.0,First Central Savings Bank,40.7192287,-73.8426103
1030,856720000.0,Clear Mountain Bank,39.6211352,-79.9237477
1031,856166000.0,Seattle Bank,47.5795585,-122.3116428
1032,855966000.0,First Federal Savings and Loan Association of Greene Co,,
1033,855762000.0,BNC National Bank,33.6658463,-112.2024362
1034,854957000.0,First Federal Bank,32.7995763,-79.9519523
1035,854083000.0,OptimumBank,,
1036,851739000.0,Stifel Trust Company,,
1037,849321000.0,Tennessee State Bank,35.9436156,-83.9109533
1038,848744000.0,City First Bank,45.404533,-75.6890165
1039,847874000.0,First Security Bank,35.2519554,-91.7370084
1040,847723000.0,"Presidential Bank, FSB",,
1041,846355000.0,Jackson County Bank,39.228921,-85.9035962
1042,845328000.0,Cornhusker Bank,40.7548584,-96.672151
1043,844411000.0,Bank of Wisconsin Dells,43.6266624,-89.7749087
1044,844027000.0,Texas National Bank,32.2948813,-95.2614728
1045,843973000.0,Mid-Missouri Bank,37.1796131,-93.2212921
1046,843019000.0,First Bank & Trust Co.,36.9320839,-82.6351511
1047,842947000.0,Superior National Bank,42.5215549,-83.2848021
1048,842527000.0,Sturgis Bank & Trust Company,,
1049,841754000.0,Sanibel Captiva Community Bank,,
1050,841116000.0,Resource Bank,30.0014548,-90.1263085
1051,840398000.0,"Grasshopper Bank, N.A.",,
1052,840389000.0,The First National Bank of Granbury,,
1053,840027000.0,Somerset Regal Bank,,
1054,839307000.0,Tolleson Private Bank,32.8379889,-96.8040699
1055,836150000.0,First General Bank,,
1056,834842000.0,HNB National Bank,6.8865944,79.8577915
1057,834148000.0,First Capital Bank,37.5366499,-77.4370678
1058,833085000.0,First State Bank,42.3312696,-83.0482988
1059,832349000.0,NewFirst National Bank,29.3995463,-95.8384666
1060,831677000.0,Trustar Bank,47.4906303,-94.893002
1061,831117000.0,The Paducah Bank and Trust Company,,
1062,829534000.0,The Citizens National Bank of Bluffton,,
1063,829461000.0,Falcon National Bank,45.5581356,-94.163985
1064,829246000.0,Pioneer Bank & Trust,44.0658879,-103.2317947
1065,828428000.0,Grand Savings Bank,36.0622616,-94.1608056
1066,827994000.0,Pioneer Bank,42.6496961,-73.7531345
1067,825789000.0,MapleMark Bank,,
1068,825748000.0,CNB Bank,39.7167592,-90.2486349
1069,825157000.0,Bank of the Orient,37.7824188,-122.4646605
1070,824623000.0,C3bank,,
1071,824573000.0,"Calvin B. Taylor Banking Company of Berlin, Maryland",,
1072,823429000.0,University Bank,42.2404611,-83.6163599
1073,822825000.0,Clear Fork Bank,32.3797397,-99.7709677
1074,819220000.0,Farmers and Merchants Bank,40.4524013,-86.9101344
1075,819067000.0,The Farmers & Merchants Bank,38.3926277,-78.811447
1076,818331000.0,United Southern Bank,28.547365,-81.728311
1077,818153000.0,Southwest Heritage Bank,45.5169459,-122.680583
1078,817853000.0,Amerasia Bank,40.7378206,-73.8773606
1079,817209000.0,FirsTier Bank,41.1598788,-104.8048724
1080,814441000.0,The First National Bank of Shiner,,
1081,813987000.0,Financial Federal Bank,44.9513478,-93.2878338
1082,812748000.0,Newfield National Bank,39.4974172,-74.9951249
1083,812581000.0,"The Farmers Bank, Frankfort, Indiana",,
1084,812498000.0,West Alabama Bank & Trust,33.235689,-87.5545655
1085,812112000.0,Security State Bank,30.0434179,-99.145428
1086,811787000.0,American Bank,38.9028025,-77.0311017
1087,811580000.0,"Jonestown Bank and Trust Company, of Jonestown, Pennsylvania",,
1088,811179000.0,Ciera Bank,33.2150594,-97.13634
1089,810727000.0,NBC OKLAHOMA,35.6057745,-97.5515536
1090,807441000.0,Century Next Bank,32.5329121,-92.6382218
1091,807188000.0,Access Bank,5.5523944,-0.1900499
1092,804316000.0,Prime Alliance Bank,,
1093,802777000.0,Partners Bank of New England,,
1094,801900000.0,New Millennium Bank,40.4922834,-74.4458049
1095,801305000.0,Security Financial Bank,44.2953387,-90.8323711
1096,800896000.0,The First National Bank of Bemidji,,
1097,800210000.0,Round Top State Bank,29.9038686,-96.9068002
1098,799404000.0,Adams Community Bank,42.6996054,-73.1096079
1099,799395000.0,The First National Bank of Middle Tennessee,35.6971956,-85.7806017
1100,799352000.0,Ledyard National Bank,43.698239,-72.2811887
1101,799292000.0,Reading Co-operative Bank,51.449831,-0.9496768
1102,798612000.0,Walden Savings Bank,41.4437001,-74.0211092
1103,797729000.0,Bank of Eastern Oregon,43.5881397,-119.0541097
1104,795616000.0,OneLocal Bank,42.1912194,-71.2008654
1105,795452000.0,Fieldpoint Private Bank & Trust,,
1106,795442000.0,Peoples State Bank,44.9583934,-89.6601737
1107,795429000.0,United Prairie Bank,44.3149778,-94.4621836
1108,794179000.0,TrailWest Bank,46.8706306,-113.9919942
1109,793071000.0,Vision Bank,46.9079396,-96.7985594
1110,792641000.0,"Transpecos Banks, SSB",,
1111,792106000.0,Frontier Bank of Texas,30.1110186,-97.3096471
1112,790017000.0,Coastal Heritage Bank,42.1810804,-70.9013133
1113,789583000.0,Mainstreet Community Bank of Florida,28.689,-81.392585
1114,789517000.0,Texas Heritage National Bank,,
1115,788197000.0,Security Bank,14.6010194,120.9762039
1116,786948000.0,InsBank,,
1117,786842000.0,Peoples Bank & Trust Co.,38.990482,-90.7522354
1118,786571000.0,Community National Bank,32.0153689,-102.1572305
1119,784782000.0,The Federal Savings Bank,41.8418846,-87.9899097
1120,784491000.0,Community Bank of Louisiana,32.3990187,-93.749263
1121,783847000.0,Plains State Bank,33.189974,-102.8289673
1122,782833000.0,Farmers & Merchants Bank,30.8839432,-83.285577
1123,781849000.0,The Old Fort Banking Company,,
1124,781648000.0,GNBank,38.0879695,-102.6182221
1125,778016000.0,"New Peoples Bank, Inc.",,
1126,777217000.0,"American Bank & Trust Company, Inc.",,
1127,777016000.0,Wilson & Muir Bank & Trust Company,,
1128,776945000.0,Security State Bank,30.0434179,-99.145428
1129,776798000.0,The Torrington Savings Bank,,
1130,774972000.0,Pinnacle Bank,36.0776221,-86.9497436
1131,774841000.0,Paragon Bank,44.7988347,-93.5262413
1132,773809000.0,Diamond Bank,14.6679577,-17.4329059
1133,773216000.0,Bank of Botetourt,37.0073374,-79.8768047
1134,772998000.0,Legends Bank,36.530418,-87.3616896
1135,772678000.0,FIRST COMMERCIAL BANK,25.0349545,121.5433053
1136,772520000.0,Bank of Charles Town,39.6194814,-77.7132543
1137,772431000.0,First Bank,44.9405611,26.025349
1138,769431000.0,The Farmers Bank,40.0351249,-85.9960907
1139,768384000.0,First National Bank of Michigan,42.7905597,-86.1074489
1140,766852000.0,Hawaii National Bank,21.2846262,-157.8023475
1141,766727000.0,First Commerce Bank,40.2510804,-74.5643783
1142,765901000.0,First Southern State Bank,34.2735195,-86.2052168
1143,765254000.0,First National Bank of Waterloo,39.1200948,-88.5398915
1144,764538000.0,First Northern Bank of Wyoming,44.2925248,-105.5030335
1145,762331000.0,Rio Bank,29.7039038,-98.6359157
1146,762019000.0,Axiom Bank,28.0066497,-81.7216102
1147,760864000.0,The First State Bank,38.4089817,-82.2955603
1148,760201000.0,Watertown Savings Bank,42.3765688,-71.2359348
1149,759259000.0,1st Colonial Community Bank,,
1150,758252000.0,Golden State Bank,,
1151,757301000.0,First Federal Community Bank,33.673525,-95.5218644
1152,756784000.0,First National Bank of Oklahoma,35.8051005,-95.8519333
1153,756668000.0,Resource Bank,30.0014548,-90.1263085
1154,756631000.0,First Northern Bank and Trust Company,,
1155,755863000.0,Western Commerce Bank,32.4193391,-104.2279742
1156,755322000.0,T Bank,40.9705486,29.062018
1157,754840000.0,Prevail Bank,44.7956316,-91.4675907
1158,753872000.0,VISIONBANK OF IOWA,,
1159,753627000.0,MountainOne Bank,,
1160,752206000.0,"The Peoples Bank, Biloxi, Mississippi",,
1161,751778000.0,River Bank,39.9337293,-74.157084
1162,751281000.0,First Liberty Bank,35.568894,-97.5676178
1163,750656000.0,"Citizens State Bank of New Castle, Indiana",,
1164,750624000.0,Terrabank,,
1165,749164000.0,Mechanics Bank,37.7938704,-122.4014681
1166,748800000.0,The Juniata Valley Bank,,
1167,747943000.0,The Peoples Bank Co.,34.5086246,-82.6516822
1168,747287000.0,Bessemer Trust Company,,
1169,746376000.0,Winter Park National Bank,,
1170,744798000.0,Vermillion State Bank,44.8341692,-93.0451567
1171,744179000.0,Western Bank,53.3811692,-1.4882732
1172,743340000.0,Texas National Bank of Jacksonville,,
1173,741908000.0,Northeast Bank,44.9991437,-93.2689367
1174,741890000.0,Pioneer Bank,42.6496961,-73.7531345
1175,741127000.0,Ballston Spa National Bank,43.0021205,-73.8518415
1176,741050000.0,Field & Main Bank,,
1177,740420000.0,Texas Bank,31.4789585,-100.4479725
1178,740154000.0,Nebraskaland Bank,41.1218647,-100.763442
1179,739904000.0,First Bank,44.9405611,26.025349
1180,739223000.0,Affinity Bank,47.4963794,-94.9059512
1181,737991000.0,SpiritBank,35.9889749,-96.0929143
1182,737906000.0,The Killbuck Savings Bank Company,,
1183,737708000.0,United Texas Bank,29.5376454,-98.6829899
1184,736645000.0,Farmers and Merchants Bank,40.4524013,-86.9101344
1185,736585000.0,Savings Bank of Walpole,42.9284756,-72.2750893
1186,736223000.0,Greenfield Banking Company,39.7842384,-85.801464
1187,735871000.0,Westbury Bank,43.4218588,-88.1820448
1188,735274000.0,The Savings Bank,55.8529402,-4.2585588
1189,734553000.0,First Utah Bank,40.7419648,-111.887801
1190,733230000.0,BankFirst,35.4640902,-97.509379
1191,730127000.0,The First National Bank of Bellville,,
1192,728800000.0,"StonehamBank, A Co-operative Bank",,
1193,725625000.0,First American Bank and Trust Company,,
1194,725198000.0,Skowhegan Savings Bank,45.028607,-69.2874222
1195,723046000.0,First Service Bank,35.1112673,-92.4470028
1196,722981000.0,FNB Oxford Bank,34.3686824,-89.547216
1197,722765000.0,PromiseOne Bank,,
1198,722208000.0,Thread Bank,,
1199,721280000.0,Cape Ann Savings Bank,,
1200,720692000.0,Rollstone Bank & Trust,42.5835691,-71.7749585
1201,720001000.0,Windsor Federal Bank,41.8213286,-72.5532496
1202,719556000.0,Traditions Bank,39.9625512,-76.7685757
1203,719118000.0,Bank of the West,34.0619261,-118.2961232
1204,717354000.0,Greenfield Co-operative Bank,42.599435,-72.5947805
1205,717190000.0,Triad Bank,36.0746143,-95.8896554
1206,716500000.0,Cumberland Valley National Bank & Trust Company,,
1207,716234000.0,FNBC Bank,36.3404289,-92.3843851
1208,715273000.0,Blue Ridge Bank and Trust Co.,38.9269326,-94.4118633
1209,714967000.0,Points West Community Bank,40.4227158,-104.6924564
1210,714191000.0,Franklin Savings Bank,44.6696307,-70.1507797
1211,712149000.0,Schertz Bank & Trust,29.7248122,-98.1070607
1212,709918000.0,Bank of Bridger,36.1668439,-115.1438139
1213,709864000.0,Oxford Bank,41.7481019,-88.185897
1214,708243000.0,American Bank of Freedom,39.1274974,-91.4143207
1215,706780000.0,CUSB Bank,,
1216,706650000.0,Winchester Co-operative Bank,42.4675783,-71.1775894
1217,705990000.0,Quail Creek Bank,35.5932813,-97.5676289
1218,705836000.0,Brentwood Bank,40.3135749,-80.0664659
1219,705256000.0,Winchester Savings Bank,42.4550196,-71.1374941
1220,704987000.0,Olympia Federal Savings and Loan Association,,
1221,704837000.0,Harleysville Bank,40.2675897,-75.3754093
1222,704646000.0,State Bank,28.6248302,77.2029725
1223,704214000.0,BAC Community Bank,37.9689545,-122.0534738
1224,704117000.0,United Bank & Trust,42.0207013,-92.9131082
1225,703445000.0,The Western State Bank,,
1226,703189000.0,Timberline Bank,39.188429,-106.8152943
1227,702902000.0,FCN Bank,39.2388667,-85.0940803
1228,701683000.0,CommerceOne Bank,,
1229,701672000.0,Passumpsic Savings Bank,44.4197441,-72.0157139
1230,701108000.0,"The Pitney Bowes Bank, Inc.",,
1231,699229000.0,Community Federal Savings Bank,40.6926761,-73.8549469
1232,698944000.0,EverTrust Bank,37.4221984,-121.9165849
1233,698892000.0,Oregon Pacific Banking Company dba Oregon Pacific Bank,,
1234,698772000.0,Community First Bank of Indiana,40.0438277,-86.0758301
1235,698068000.0,Lindell Bank & Trust Company,,
1236,697799000.0,Quontic Bank,40.7619461,-73.9249971
1237,697473000.0,BankIowa,42.5136061,-92.4400267
1238,697049000.0,Citizens Bank,40.619286,-74.0325034
1239,696249000.0,Minster Bank,40.301945,-84.1578506
1240,695438000.0,BNA Bank,36.881044,10.326755
1241,695390000.0,Centennial Bank,28.3633188,-81.2437637
1242,694727000.0,BayVanguard Bank,39.3905922,-76.4894272
1243,693705000.0,People's Bank of Commerce,42.3784134,-122.9093222
1244,693193000.0,Prairie State Bank and Trust,,
1245,693110000.0,CIBM Bank,40.487479,-88.9490246
1246,692538000.0,Citizens Bank,40.619286,-74.0325034
1247,692353000.0,Midwest Bank,40.728246,-96.6831339
1248,691259000.0,First Savings Bank of Hegewisch,41.6548738,-87.5474457
1249,690718000.0,Iroquois Federal Savings and Loan Association,,
1250,690056000.0,Heartland Bank,-36.8689007,174.7753733
1251,690027000.0,Itasca Bank & Trust Co.,41.9711298,-88.0168317
1252,689854000.0,City State Bank,10.299122,123.8971337
1253,689338000.0,Column,-28.9890667,29.15925
1254,688682000.0,Highland Bank,44.9176254,-93.1893083
1255,688119000.0,Alliance Bank,50.4410463,30.6199308
1256,687472000.0,First Liberty Bank,35.568894,-97.5676178
1257,683901000.0,The Citizens Bank,34.3717148,-89.4967153
1258,683133000.0,CNB St Louis Bank,,
1259,682563000.0,Arthur State Bank,34.0036633,-81.0252019
1260,682270000.0,"Pendleton Community Bank, Inc.",,
1261,682049000.0,Farmers and Merchants Bank,40.4524013,-86.9101344
1262,680964000.0,Legacy Bank,35.6103407,-97.5657566
1263,680883000.0,First National Bank North,46.8205105,-94.5064973
1264,680115000.0,First Freedom Bank,36.219168,-86.34123
1265,676534000.0,Industry State Bank,,
1266,675536000.0,Macon Bank and Trust Company,,
1267,674155000.0,First Century Bank,36.2318623,-83.8363907
1268,674092000.0,Freedom Bank of Southern Missouri,,
1269,673809000.0,Royal Bank,43.6884777,-79.4127866
1270,672963000.0,Progressive Bank,32.4570525,-93.7216425
1271,672770000.0,Beacon Community Bank,32.7933672,-79.9315586
1272,672339000.0,Primebank,42.7940324,-96.1682216
1273,672283000.0,Focus Bank,35.8146475,-90.6698545
1274,671117000.0,First Federal Bank of Kansas City,39.115304,-94.6276989
1275,671005000.0,UBank,31.2765321,-94.5759011
1276,670771000.0,Harmony Bank,32.244458,-96.4973326
1277,668520000.0,Carver Federal Savings Bank,40.6519742,-73.9589386
1278,668089000.0,Monson Savings Bank,42.1491236,-72.4429678
1279,667407000.0,Heartland National Bank,27.5963139,-81.509966
1280,667120000.0,Mechanics Cooperative Bank,,
1281,666769000.0,Hebron Savings Bank,38.4185267,-75.566086
1282,664954000.0,Home State Bank,40.5867554,-105.0736902
1283,664663000.0,Hickory Point Bank and Trust,,
1284,663948000.0,Citizens Trust Bank,33.5146045,-86.8110399
1285,662135000.0,Commerce Bank,38.6276779,-90.1894157
1286,658620000.0,West Shore Bank,44.3628168,-86.2034148
1287,658206000.0,"KS Bank, Inc.",,
1288,657605000.0,Fortress Bank,35.1868774,33.3619357
1289,656687000.0,Stone Bank,64.1721004,-51.4748938
1290,656273000.0,Carolina Bank & Trust Co.,34.229179,-79.7423324
1291,655272000.0,MidSouth Bank,30.1859047,-92.0112392
1292,655072000.0,Community First Bank,32.7566658,-79.9726275
1293,655044000.0,Classic Bank,30.1070274,-97.3325563
1294,654974000.0,Freedom Bank,43.2444045,76.9417304
1295,654884000.0,First State Bank of Middlebury,41.5881539,-85.8348008
1296,654865000.0,F&M Bank,37.8258332,-122.2090531
1297,653071000.0,Dundee Bank,41.2648688,-95.9912916
1298,652112000.0,Liberty Bank for Savings,42.0111402,-87.8380038
1299,651273000.0,"FNB Bank, Inc.",,
1300,650912000.0,First Option Bank,38.4986127,-94.951076
1301,650219000.0,Green Belt Bank & Trust,42.5198321,-93.2651755
1302,649637000.0,Capra Bank,,
1303,649464000.0,First State Bank,42.3312696,-83.0482988
1304,649153000.0,The Bank of Elk River,45.3032415,-93.5661422
1305,648981000.0,Harford Bank,39.5421229,-76.1003036
1306,648906000.0,Franklin Bank & Trust Company,36.7251917,-86.5778605
1307,648231000.0,First Western Bank,44.8650346,-93.4192437
1308,647854000.0,West Plains Bank and Trust Company,,
1309,647596000.0,Mountain Pacific Bank,47.8200333,-122.3155578
1310,645361000.0,Farmers Bank and Trust Company,,
1311,644469000.0,First Midwest Bank of the Ozarks,,
1312,644203000.0,First Community Bank,-1.2856167,36.8223468
1313,643821000.0,Platte Valley Bank,39.248392,-94.6533806
1314,643238000.0,United Bankers' Bank,,
1315,642795000.0,First United Bank,30.4969357,-97.7743446
1316,642503000.0,Bogota Savings Bank,,
1317,642266000.0,Industrial Bank,38.8916049,-76.9374689
1318,641516000.0,Southwest Bank,33.5017388,-101.9044531
1319,640879000.0,CFSBANK,40.2837179,-79.5926073
1320,640395000.0,MRV Banks,38.2356528,-90.3936086
1321,640377000.0,Dairy State Bank,44.8819408,-91.8995603
1322,640284000.0,"Titan Bank, N.A.",,
1323,639807000.0,Countybank,34.8500945,-82.4019899
1324,639227000.0,Village Bank,37.583293,-77.4989717
1325,639198000.0,Town & Country Bank,37.9593759,-91.7694969
1326,637539000.0,Unified Bank,40.0949768,-80.7259755
1327,636899000.0,Manufacturers Bank & Trust Company,,
1328,636100000.0,Peach State Bank & Trust,,
1329,634260000.0,"American Plus Bank, N.A.",,
1330,633490000.0,First State Bank of Livingston,30.71193,-94.93375
1331,632275000.0,FinWise Bank,40.6307407,-111.8708889
1332,632130000.0,The Genoa Banking Company,,
1333,631459000.0,"Kleberg Bank, N.A.",,
1334,630882000.0,Decorah Bank & Trust Company,,
1335,629943000.0,Farmers State Bank,35.0916219,-92.4415866
1336,628843000.0,Lea County State Bank,32.7108368,-103.1371236
1337,628498000.0,Farmers National Bank,40.1077568,-83.2672442
1338,628408000.0,Bank of Houston,29.7600488,-95.3844331
1339,628176000.0,First Bank,44.9405611,26.025349
1340,626698000.0,Endeavor Bank,,
1341,626655000.0,First Commercial Bank (USA),37.3119516,-122.0318878
1342,626335000.0,21st Century Bank,45.1406361,-93.2364595
1343,625577000.0,Artisans' Bank,39.7456567,-75.5503862
1344,625516000.0,The Bank of Canton,31.241223,121.481403
1345,625338000.0,The First National Bank of Sonora,,
1346,625061000.0,Oak View National Bank,38.4814026,-77.9864812
1347,624243000.0,The Community Bank,39.942393,-82.0067333
1348,623866000.0,Bank of Sun Prairie,43.169147,-89.2655618
1349,623549000.0,William Penn Bank,40.3082623,-75.1354049
1350,622507000.0,AMG National Trust Bank,,
1351,622391000.0,Reliabank Dakota,44.6572744,-97.2067771
1352,622054000.0,The National Capital Bank of Washington,38.8870309,-77.0011389
1353,621241000.0,American Federal Bank,46.8788365,-96.7857407
1354,621189000.0,"Great Midwest Bank, S.S.B.",,
1355,621060000.0,Merchants & Marine Bank,30.2710764,-87.6871797
1356,618674000.0,The Queenstown Bank of Maryland,39.1490354,-75.9808186
1357,618523000.0,Central State Bank,42.030657,-91.6572972
1358,617557000.0,First Community Bank of Central Alabama,,
1359,616830000.0,Outdoor Bank,29.753371,-95.359668
1360,615358000.0,Central Bank,37.9323657,58.3751167
1361,615058000.0,The Fountain Trust Company,,
1362,614790000.0,Dream First Bank,,
1363,614372000.0,Valliance Bank,35.2379217,-97.4813215
1364,613751000.0,Bank of Brenham,30.1637762,-96.3989675
1365,612199000.0,Sage Capital Bank,29.8800091,-97.6697926
1366,612185000.0,The First Bank of Greenwich,40.7194184,-74.0023149
1367,610827000.0,Prospect Bank,53.882212,-1.3483467
1368,609094000.0,"Citizens Bank of West Virginia, Inc.",,
1369,607716000.0,Premier Bank Minnesota,44.0184611,-92.4649995
1370,607424000.0,First Fidelity Bank,33.6941906,-112.0993314
1371,607397000.0,First National Bank of Scotia,42.6986148,-73.8876729
1372,607049000.0,CCB Community Bank,30.5133211,-86.4519642
1373,602911000.0,The Northumberland National Bank,,
1374,602891000.0,Texas Gulf Bank,29.1441817,-95.6473884
1375,602773000.0,Grandview Bank,32.3358532,-97.411918
1376,602147000.0,Mauch Chunk Trust Company,40.8631733,-75.7375936
1377,602102000.0,First Community Bank of Tennessee,35.8514282,-86.4250298
1378,602092000.0,Flagship Bank,45.22722,-93.3988259
1379,601995000.0,The North Salem State Bank,,
1380,601871000.0,Legence Bank,37.8410406,-88.6116592
1381,601337000.0,First Community Bank,-1.2856167,36.8223468
1382,600249000.0,The Malvern National Bank,40.0357584,-75.5146577
1383,600169000.0,Time Bank,55.8124416,37.5895549
1384,598507000.0,Millennium Bank,52.2356008,21.0088026
1385,597959000.0,Hiawatha National Bank,44.9608992,-92.7282008
1386,597492000.0,"Colonial Savings, F.A.",,
1387,597253000.0,Fayetteville Bank,29.9044112,-96.8797526
1388,596740000.0,Thumb Bank and Trust,,
1389,596593000.0,Citizens Bank,40.619286,-74.0325034
1390,595256000.0,Marine Bank & Trust Company,,
1391,594482000.0,United Valley Bank,48.3337722,-96.819475
1392,593979000.0,Baker-Boyer National Bank,46.0662833,-118.339564
1393,593576000.0,Bank of Hillsboro,38.7805085,-89.9512505
1394,593350000.0,FNB SOUTH,31.5004156,-82.850299
1395,593170000.0,Pioneer Trust Bank,44.9406966,-123.040748
1396,592374000.0,Mission Valley Bank,,
1397,592030000.0,American Bank,38.9028025,-77.0311017
1398,591440000.0,Citizens 1st Bank,41.8586735,-71.5182554
1399,591434000.0,DR Bank,53.3823177,-2.5977343
1400,591179000.0,The Bank of New Glarus,42.8152601,-89.6341806
1401,590987000.0,Sauk Valley Bank & Trust Company,,
1402,590377000.0,"Citizens Bank of Kentucky, Inc.",,
1403,590147000.0,Primary Bank,42.9389089,-71.5252085
1404,589934000.0,First Century Bank,36.2318623,-83.8363907
1405,589725000.0,Bank of Luxemburg,44.5398187,-87.702757
1406,589159000.0,Pilgrim Bank,34.1599986,-99.3129597
1407,588619000.0,Peoples Community Bank,43.3352104,-90.3857244
1408,587953000.0,Bank of Ocean City,38.3828883,-75.0667123
1409,587906000.0,Premier Bank,37.545925,-77.4406144
1410,587756000.0,FM Bank,52.1700485,22.2731808
1411,587225000.0,OPTUS Bank,34.0029726,-81.0286378
1412,586835000.0,Franklin Savings Bank,44.6696307,-70.1507797
1413,586425000.0,Highpoint Community Bank,42.7159443,-85.4709574
1414,585542000.0,First National Community Bank,41.4084998,-75.6641977
1415,585153000.0,Lake Shore Savings Bank,42.9600482,-78.7714597
1416,585085000.0,"Middlesex Federal Savings, F.A.",,
1417,584618000.0,"CNB Bank, Inc.",,
1418,584160000.0,"First Hope Bank, A National Banking Association",,
1419,583125000.0,Union State Bank,33.3915734,-86.7966417
1420,583000000.0,Union Bank,7.4073307,3.9100162
1421,582441000.0,The Stephenson National Bank and Trust,,
1422,581139000.0,Worthington Bank,32.7364189,-97.1086173
1423,580838000.0,Albany Bank and Trust Company,42.6564568,-73.7633142
1424,580440000.0,"The Peoples State Bank of Newton, Illinois",,
1425,579725000.0,First Central State Bank,41.5883291,-90.3595048
1426,579559000.0,Commencement Bank,47.2530268,-122.4396616
1427,579051000.0,Community State Bank,41.6272898,-93.5998944
1428,578779000.0,Atlantic Community Bankers Bank,,
1429,578529000.0,River Valley Community Bank,38.8993738,-121.0695463
1430,577392000.0,Pennian Bank,40.2504366,-76.9153627
1431,576654000.0,Oconee State Bank,33.9199628,-83.5146523
1432,575688000.0,The Eastern Colorado Bank,,
1433,575224000.0,First Federal Savings and Loan Association of McMinnville,,
1434,574974000.0,First Resource Bank,40.0552558,-75.6481668
1435,574685000.0,American State Bank & Trust Company of Williston,,
1436,574481000.0,TXN Bank,29.3466679,-99.126548
1437,573631000.0,Longview Bank,40.0531312,-89.1849009
1438,572603000.0,Cornerstone Community Bank,27.7704648,-82.7287741
1439,572215000.0,The Greenwood's State Bank,,
1440,571911000.0,American State Bank,33.5347336,-101.8887216
1441,571204000.0,Capital Bank,40.6365065,-73.9907995
1442,570972000.0,Grand Bank,47.1006595,-55.7544263
1443,570305000.0,Legacy Bank,35.6103407,-97.5657566
1444,569939000.0,Putnam County Bank,38.4490579,-81.9397927
1445,569409000.0,American Nation Bank,34.1950223,-97.1438717
1446,568033000.0,South Louisiana Bank,39.4497229,-91.0475023
1447,566709000.0,The Luzerne Bank,,
1448,566475000.0,Savers Co-operative Bank,,
1449,565956000.0,Community First Bank,32.7566658,-79.9726275
1450,565210000.0,Concordia Bank & Trust Company,,
1451,565035000.0,"Community Bank & Trust, Waco, Texas",31.5342487,-97.1896682
1452,564853000.0,"The Poca Valley Bank, Inc.",,
1453,564808000.0,Springs Valley Bank & Trust Company,,
1454,564699000.0,Northeast Georgia Bank,34.1222379,-83.6085901
1455,564478000.0,Modern Bank,45.4364754,28.0564905
1456,563713000.0,Partners Bank of California,34.1841694,-118.6053606
1457,561935000.0,Jeff Bank,41.5658984,-74.4976422
1458,561757000.0,Citizens State Bank,41.1394038,-96.0511266
1459,560894000.0,The Hardin County Bank,35.2258791,-88.24292
1460,560871000.0,The New Washington State Bank,,
1461,560258000.0,"First & Farmers National Bank, Inc.",,
1462,560033000.0,InFirst Bank,40.623223,-79.1569916
1463,559135000.0,MidAmerica National Bank,40.4591597,-90.6827687
1464,558923000.0,Midstates Bank,42.4012177,-96.352666
1465,558732000.0,Hana Bank USA,40.8513077,-73.9702276
1466,558256000.0,Home Federal Bank,35.9345844,-83.9941895
1467,558237000.0,1st Bank Yuma,32.6769153,-114.6238826
1468,558151000.0,Arbor Bank,41.2346073,-96.1796202
1469,558074000.0,FirstBank,44.3829661,26.1320409
1470,557400000.0,Peoples Savings Bank,41.9742454,-91.6721086
1471,557106000.0,New Tripoli Bank,40.517926,-75.5262186
1472,556713000.0,First Resource Bank,40.0552558,-75.6481668
1473,556549000.0,Clear Lake Bank and Trust Company,28.3631475,-81.6796627
1474,556439000.0,Farmers and Merchants Union Bank,43.3460299,-89.0286595
1475,556046000.0,Citizens State Bank of La Crosse,43.8114616,-91.2470861
1476,556030000.0,First Federal Bank & Trust,45.7862875,-108.6171731
1477,554797000.0,BankOrion,41.2021891,-90.7507168
1478,554122000.0,Stillman BancCorp N.A.,,
1479,553531000.0,Bank of San Francisco,34.0433624,-118.259672
1480,552345000.0,Capitol Bank,43.0756248,-89.5204345
1481,552271000.0,Midwest Bank,40.728246,-96.6831339
1482,552053000.0,HomeTown Bank,29.2760561,-94.8105578
1483,551328000.0,Metairie Bank & Trust Company,,
1484,550601000.0,Unity Bank,7.7957113,6.7356118
1485,550262000.0,Bank of Oak Ridge,36.1140936,-79.8799586
1486,549982000.0,HomeBank,55.6488604,-2.316955
1487,549826000.0,AbbyBank,44.9456316,-90.3162442
1488,549497000.0,The Hometown Bank of Alabama,,
1489,549195000.0,The Pueblo Bank and Trust Company,,
1490,548981000.0,DMB Community Bank,43.242805,-89.3280814
1491,548682000.0,All America Bank,34.7145532,-98.4028582
1492,548647000.0,Citizens National Bank,36.0072488,-83.7689636
1493,548565000.0,Eagle Bank,30.5315439,-97.6527949
1494,547950000.0,The State National Bank of Big Spring,,
1495,547734000.0,The First National Bank of Carmi,,
1496,547517000.0,Athol Savings Bank,42.5642043,-71.9905655
1497,547218000.0,Woodlands Bank,56.0339691,-3.3610164
1498,545667000.0,First Bank,44.9405611,26.025349
1499,545610000.0,WOODTRUST BANK,44.9699229,-89.6275665
1500,544737000.0,The Citizens National Bank of Somerset,,
1501,543975000.0,Wellington State Bank,33.522431,-101.9044042
1502,543537000.0,Barwick Banking Company,,
1503,543352000.0,First Neighbor Bank,39.2719634,-88.2337205
1504,543330000.0,Florida Capital Bank,29.8225697,-81.2704593
1505,542862000.0,Phoenixville Federal Bank and Trust,40.1322528,-75.5159399
1506,542331000.0,Marion County State Bank,41.4069851,-92.9162086
1507,542136000.0,"Finance Factors, Ltd.",,
1508,541905000.0,First United Bank and Trust Company,37.7482756,-87.1136571
1509,541835000.0,Community First Bank,32.7566658,-79.9726275
1510,541340000.0,Farmers Trust and Savings Bank,41.6613413,-92.0105587
1511,541254000.0,American Bank,38.9028025,-77.0311017
1512,541191000.0,The Bank of Marion,36.6335316,-82.1213585
1513,541160000.0,Andrew Johnson Bank,36.1643325,-82.8298589
1514,538707000.0,First Southern Bank,37.7268759,-89.213185
1515,538667000.0,First Bank of Owasso,36.2790913,-95.8495337
1516,537721000.0,First National Bank and Trust Company of Ardmore,,
1517,537622000.0,Oconee Federal Savings and Loan Association,,
1518,537185000.0,The Bradford National Bank of Greenville,,
1519,536103000.0,Platinum Bank,50.4228433,30.5051752
1520,535814000.0,County Bank,37.3188744,-120.4761589
1521,535647000.0,The Andover Bank,,
1522,535505000.0,The Bank,55.4470882,-2.2194775
1523,534740000.0,Guardian Bank,-4.0319425,39.7116799
1524,534678000.0,Bruning Bank,40.4473449,-99.3800752
1525,534285000.0,Ixonia Bank,43.03874,-87.9035639
1526,534091000.0,First National Bank of Gillette,44.273184,-105.4948509
1527,533978000.0,Evergreen Federal Bank,42.3331109,-122.8627203
1528,533166000.0,First State Bank of Blakely,31.3756845,-84.9344364
1529,532270000.0,Southeastern Bank,31.1844689,-81.3789877
1530,531684000.0,The Maries County Bank,38.1875557,-91.9492763
1531,530745000.0,BankNorth,46.6238804,-97.6016935
1532,530556000.0,Range Bank,53.731456,-1.8586395
1533,530258000.0,FNBT BANK,30.7522496,-86.563327
1534,530219000.0,Sunrise Bank,35.0846051,-106.6502314
1535,529982000.0,Fortifi Bank,43.1764567,-89.4128558
1536,529814000.0,BankTennessee,35.0459477,-89.6998386
1537,529602000.0,Cenlar FSB,,
1538,529568000.0,Greenville National Bank,40.1209824,-84.622701
1539,528675000.0,Golden Valley Bank,40.5734383,-122.3680525
1540,528011000.0,First National Bank Colorado,40.5530732,-105.1183686
1541,528004000.0,American Bank,38.9028025,-77.0311017
1542,527820000.0,Grand Valley Bank,39.0756938,-108.5613851
1543,527758000.0,The Citizens Bank of Georgia,32.9817971,-82.8116005
1544,527744000.0,Delta Bank,49.7945053,73.0560118
1545,527059000.0,Woodsville Guaranty Savings Bank,44.300801,-71.7680361
1546,527012000.0,First Bank Kansas,38.8368825,-97.6088091
1547,526750000.0,Palmetto State Bank,32.4414082,-80.7026453
1548,526414000.0,Peoples Savings Bank,41.9742454,-91.6721086
1549,526019000.0,First State Bank,42.3312696,-83.0482988
1550,525714000.0,Bank of Odessa,39.0067722,-93.9547272
1551,525560000.0,The First National Bank of East Texas,,
1552,525541000.0,Exchange Bank & Trust,39.3178254,-94.9181645
1553,525473000.0,Carroll Bank and Trust,33.5592634,-85.0737481
1554,525466000.0,NewBank,55.8468011,-4.2019817
1555,525359000.0,PS Bank,14.5621763,120.9947439
1556,525143000.0,Farmers Bank,46.4232973,-63.2833069
1557,524070000.0,Chippewa Valley Bank,46.699548,-92.0388108
1558,523605000.0,Bank of Prairie du Sac,,
1559,523508000.0,United Community Bank,3.1892015,101.7311394
1560,523499000.0,Farmers Bank and Trust Company,,
1561,523091000.0,First Independence Bank,42.3319132,-83.0481576
1562,522656000.0,First Chatham Bank,32.1412758,-81.2466055
1563,522394000.0,Peoples National Bank of Kewanee,41.359421,-89.7397448
1564,522259000.0,GBC International Bank,37.7992795,-122.4085019
1565,521980000.0,SAVIBANK,48.7610656,-122.4861445
1566,520676000.0,Northwestern Bank,46.0126397,-59.8624498
1567,519477000.0,"First State Bank and Trust Company, Inc.",,
1568,519035000.0,Reliance Savings Bank,14.5777405,121.0738936
1569,518758000.0,"First Kentucky Bank, Inc.",,
1570,518228000.0,OneUnited Bank,,
1571,518068000.0,FNBC Bank & Trust,41.8084855,-87.9021642
1572,517958000.0,TrustBank,5.8263927,-55.1660502
1573,516194000.0,Eaglemark Savings Bank,,
1574,515888000.0,First Midwest Bank of Dexter,,
1575,515510000.0,Tri-County Bank,41.1461343,-104.7616759
1576,515294000.0,Citizens State Bank,41.1394038,-96.0511266
1577,514964000.0,Kingston National Bank,39.3333702,-83.0055316
1578,514905000.0,Washington County Bank,41.543437,-96.1349454
1579,514737000.0,"First Bank, Upper Michigan",,
1580,514541000.0,Homeland Federal Savings Bank,,
1581,513557000.0,Quaint Oak Bank,,
1582,513218000.0,Century Savings Bank,14.5557691,121.0153954
1583,513173000.0,"First Federal Community Bank, SSB",,
1584,512669000.0,Community Bank of Pickens County,,
1585,512454000.0,Mt. McKinley Bank,64.8427554,-147.7179028
1586,512326000.0,Haverhill Bank,42.8065065,-71.1019431
1587,511928000.0,Susquehanna Community Bank,41.0187782,-76.8780212
1588,511575000.0,First Security Bank and Trust Company,,
1589,511539000.0,Peoples Bank & Trust,38.990482,-90.7522354
1590,511407000.0,Bank & Trust Company,31.8913417,35.2169102
1591,511239000.0,Connecticut Community Bank,41.3778046,-71.8326907
1592,511084000.0,"The Bank and Trust, S.S.B.",,
1593,510877000.0,Farmers & Merchants Savings Bank,41.636478,-91.5683004
1594,510334000.0,Intracoastal Bank,29.5540735,-81.2334385
1595,510078000.0,BankVista,44.1703416,-93.9684245
1596,510030000.0,Fidelity Bank,34.9547207,-81.9344627
1597,509736000.0,Slovenian Savings and Loan Association of Canonsburg,,
1598,508794000.0,Cross Keys Bank,53.9404325,-1.106607
1599,508634000.0,Tioga State Bank,42.0942491,-75.8991939
1600,507831000.0,First Port City Bank,30.9043308,-84.5798872
1601,507759000.0,Commercial Bank,31.9921737,-102.0989637
1602,507719000.0,Dominion Bank,43.6475123,-79.3810644
1603,507666000.0,"Servbank,sb",,
1604,507180000.0,GNB Bank,42.361761,-92.7710128
1605,506892000.0,Crossroads Bank,28.8341289,-96.958417
1606,506528000.0,Mifflinburg Bank and Trust Company,,
1607,506041000.0,The Falls City National Bank,,
1608,503915000.0,The Milford Bank,41.2419931,-73.0312478
1609,503298000.0,Security State Bank,30.0434179,-99.145428
1610,503182000.0,Jefferson Security Bank,39.4290289,-77.8058143
1611,503172000.0,South Georgia Banking Company,31.4738572,-83.5026798
1612,502984000.0,The National Bank of Middlebury,,
1613,502422000.0,First Federal Savings Bank,38.1983238,-84.8769258
1614,501944000.0,Empire State Bank,40.6130656,-74.1201663
1615,501918000.0,Citizens Bank Minnesota,44.3144975,-94.4604018
1616,501834000.0,First National Bank of Eastern Arkansas,,
1617,501612000.0,Washington State Bank,41.2986212,-91.6933447
1618,501370000.0,Washington Savings Bank,40.1087931,-75.0254287
1619,500678000.0,Walpole Co-operative Bank,42.1454121,-71.2531108
1620,499992000.0,Pineland Bank,30.7798271,-81.6203173
1621,499392000.0,Mercer County State Bank,41.1623254,-80.0962016
1622,499143000.0,First State Bank,42.3312696,-83.0482988
1623,498748000.0,Hearthside Bank Corporation,,
1624,498548000.0,The Bank of South Carolina,32.7832565,-79.9317648
1625,497450000.0,INSOUTH Bank,,
1626,497327000.0,Century Bank,30.6938927,-88.1260672
1627,496344000.0,Community Bank,43.4769365,-75.3198885
1628,495312000.0,First National Bank & Trust Company of McAlester,,
1629,493210000.0,Freedom Bank,43.2444045,76.9417304
1630,491768000.0,The Bank of Southside Virginia,37.2664325,-77.4005451
1631,491047000.0,Bank of Holly Springs,,
1632,491035000.0,Four Corners Community Bank,49.2815084,-123.0991916
1633,490621000.0,The First National Bank of Jeanerette,,
1634,489389000.0,Apple River State Bank,42.477605,-90.2510441
1635,488640000.0,The Peoples Bank,34.5086246,-82.6516822
1636,488189000.0,Bay State Savings Bank,42.2616309,-71.8018769
1637,487809000.0,First National Bank of Louisiana,30.2271674,-93.3397655
1638,487166000.0,First State Bank & Trust,39.1156971,-94.9391787
1639,486649000.0,Enterprise Bank of South Carolina,33.2443384,-81.3624783
1640,486223000.0,American Heritage National Bank,46.0844482,-94.8675343
1641,486208000.0,United Bank of Union,38.4458006,-91.0080346
1642,486019000.0,Peoples Exchange Bank,38.0024541,-84.5460794
1643,485898000.0,Cross Bank,53.7179808,-1.6415566
1644,485612000.0,MNB BANK,47.5036389,19.0516593
1645,485500000.0,Unison Bank,33.3941453,-111.7506571
1646,485476000.0,Premier Community Bank,44.6628311,-88.226904
1647,484753000.0,Cottonport Bank,30.3872581,-91.2455277
1648,484573000.0,The First National Bank of Mertzon,,
1649,484301000.0,First Federal Savings Bank,38.1983238,-84.8769258
1650,484162000.0,Citizens Bank and Trust Company,46.4361595,-109.8324314
1651,483966000.0,"SouthTrust Bank, N.A.",,
1652,483842000.0,Lee Bank,42.4441029,-73.2557027
1653,483811000.0,Crown Bank,53.0255959,-2.1760236
1654,483071000.0,The Shelby County State Bank,,
1655,481718000.0,United Mississippi Bank,31.5381591,-91.3834167
1656,479431000.0,Pacific Valley Bank,36.212935,-121.126644
1657,479380000.0,Community Bank Mankato,,
1658,479211000.0,Citizens' Bank & Trust Co.,44.8908829,-94.3696712
1659,478299000.0,Madison County Bank,34.7006249,-86.5845124
1660,477942000.0,"WNB FINANCIAL, N.A.",,
1661,477517000.0,Peoples Bank & Trust,38.990482,-90.7522354
1662,476556000.0,First Bank,44.9405611,26.025349
1663,476309000.0,The Peoples Bank,34.5086246,-82.6516822
1664,476134000.0,UNICO Bank,37.8815531,-90.5109392
1665,475535000.0,Merchants & Farmers Bank & Trust Company,,
1666,475320000.0,RVR Bank,39.9337293,-74.157084
1667,475256000.0,Jonah Bank of Wyoming,42.8494101,-106.2773993
1668,475142000.0,First National Bank of Huntsville,34.6807401,-86.7237048
1669,474831000.0,The Bank of Bennington,43.0650365,-73.1572133
1670,474602000.0,Community Savings Bank,41.977144,-91.6176697
1671,473305000.0,First Seacoast Bank,43.3048919,-70.9756386
1672,473302000.0,Crest Savings Bank,38.9900343,-74.8128719
1673,473141000.0,Alva State Bank & Trust Company,,
1674,472627000.0,CS Bank,40.0662915,-83.0188003
1675,470945000.0,The Murray Bank,36.603889,-88.3146888
1676,470782000.0,First Commercial Bank,25.0610306,121.5445194
1677,470704000.0,Geddes Federal Savings and Loan Association,43.0478942,-76.1997192
1678,469905000.0,"Black Hills Community Bank, N.A.",,
1679,469829000.0,"Trinity Bank, N.A.",,
1680,469739000.0,Frontier State Bank,34.001953,71.5440377
1681,469568000.0,Citizens Bank of Kansas,37.6867304,-97.2796829
1682,469245000.0,The Farmers Bank of Willards,,
1683,469176000.0,Glenwood State Bank (Incorporated),,
1684,468890000.0,Rayne State Bank & Trust Company,,
1685,468118000.0,Baraboo State Bank,,
1686,467956000.0,Wayne County Bank,35.172901,-87.7389679
1687,466898000.0,First Choice Bank,34.2482891,-88.9992328
1688,466639000.0,Millennium Bank,52.2356008,21.0088026
1689,465990000.0,Stockmens Bank,28.4375577,-99.2349109
1690,465635000.0,First State Bank and Trust,38.971029,-95.2890348
1691,464983000.0,Equitable Bank,43.6882187,-79.3953487
1692,464693000.0,South Ottumwa Savings Bank,41.0100024,-92.4175761
1693,464483000.0,Central State Bank,42.030657,-91.6572972
1694,462874000.0,Bank of the Valley,41.4615688,-97.0606006
1695,462632000.0,The National Bank of Coxsackie,,
1696,462329000.0,Five Points Bank of Hastings,,
1697,462179000.0,DeMotte State Bank,41.2903311,-87.4030241
1698,461707000.0,PremierBank,42.7035697,-89.0051155
1699,461346000.0,Redwood Capital Bank,40.8027169,-124.1654165
1700,461265000.0,Cross County Savings Bank,39.0393318,-121.0936633
1701,460769000.0,Portage Community Bank,43.5699879,-89.4704164
1702,460762000.0,Eastern Michigan Bank,43.0247741,-82.458181
1703,460259000.0,Farmers & Merchants Bank of Colby,,
1704,459039000.0,Legends Bank,36.530418,-87.3616896
1705,458562000.0,Phelps County Bank,37.949812,-91.7713083
1706,457783000.0,The Friendship State Bank,,
1707,457603000.0,Lake Elmo Bank,45.0377146,-92.82041
1708,457471000.0,BlueHarbor Bank,,
1709,457316000.0,The Cooperative Bank,51.5845287,-0.0191401
1710,457010000.0,First National Bank of Coffee County,,
1711,456817000.0,Bank of Bartlett,35.2043418,-89.8539983
1712,455830000.0,Regional Missouri Bank,39.434689,-92.9391271
1713,455228000.0,Farmers and Merchants Bank,40.4524013,-86.9101344
1714,455222000.0,Farmers Bank of Northern Missouri,,
1715,454795000.0,Southwest Capital Bank,35.0887496,-106.6636843
1716,454648000.0,First State Bank and Trust Company,,
1717,454538000.0,KodaBank,,
1718,454489000.0,Riverstone Bank,41.8668926,-103.6638016
1719,454481000.0,The Karnes County National Bank of Karnes City,,
1720,453965000.0,Pacific Coast Bankers' Bank,,
1721,453662000.0,Triad Business Bank,36.1098636,-79.881613
1722,453545000.0,Security Savings Bank,38.8843002,-94.672063
1723,453403000.0,AVB Bank,36.0726169,-95.7965949
1724,453329000.0,Rondout Savings Bank,41.9255871,-73.9906881
1725,452686000.0,Lumbee Guaranty Bank,34.8144507,-79.1804172
1726,452451000.0,Denali State Bank,64.836037,-147.7611525
1727,452228000.0,The Fairfield National Bank,,
1728,452001000.0,TC FEDERAL BANK,30.1757063,-81.6285604
1729,451724000.0,Champlain National Bank,44.2958531,-74.00219
1730,451391000.0,North Shore Bank of Commerce,46.8307669,-92.0268429
1731,450481000.0,Bank of Frankewing,,
1732,449782000.0,Coulee Bank,44.9401241,-93.1309446
1733,449062000.0,Bank of Texas,29.8600462,-95.5237756
1734,449032000.0,First Nations Bank,41.9862267,-87.7770317
1735,448739000.0,Belgrade State Bank,37.9379456,-90.7865028
1736,448275000.0,Citizens National Bank of Cheboygan,,
1737,447998000.0,The Berkshire Bank,40.6342538,-73.993151
1738,447867000.0,First State Bank,42.3312696,-83.0482988
1739,446822000.0,West Point Bank,37.83612,-85.9479793
1740,446268000.0,Select Bank,37.3624425,-79.2101785
1741,446115000.0,Sunstate Bank,25.7632603,-80.2887742
1742,445547000.0,NBT Financial Bank,,
1743,444494000.0,South Story Bank & Trust,41.9008804,-93.6077851
1744,444454000.0,First National Bank,40.5530732,-105.1183686
1745,444448000.0,First Federal Savings Bank,38.1983238,-84.8769258
1746,444425000.0,Community State Bank,41.6272898,-93.5998944
1747,443792000.0,Gibsland Bank & Trust Company,,
